{
  "version": 0.6,
  "generator": "Overpass API 0.7.57.1 74a55df1",
  "osm3s": {
    "timestamp_osm_base": "2022-03-20T18:53:38Z",
    "copyright": "The data included in this document is from www.openstreetmap.org. The data is made available under ODbL."
  },
  "elements": [

{
  "type": "node",
  "id": 7142214,
  "lat": 50.3757735,
  "lon": -4.1838604,
  "tags": {
    "amenity": "ferry_terminal",
    "ferry": "yes",
    "public_transport": "station"
  }
},
{
  "type": "node",
  "id": 75340473,
  "lat": 50.3605603,
  "lon": -4.1748462,
  "tags": {
    "amenity": "ferry_terminal",
    "ferry": "yes",
    "name": "Foot Ferry",
    "public_transport": "station"
  }
},
{
  "type": "node",
  "id": 267863036,
  "lat": 50.3703395,
  "lon": -4.1221262,
  "tags": {
    "amenity": "post_office"
  }
},
{
  "type": "node",
  "id": 296917798,
  "lat": 50.3651254,
  "lon": -4.1578164,
  "tags": {
    "amenity": "ferry_terminal",
    "name": "Brittany Ferries, Plymouth",
    "operator": "Brittany Ferries"
  }
},
{
  "type": "node",
  "id": 309523691,
  "lat": 50.4127225,
  "lon": -4.1516732,
  "tags": {
    "amenity": "fuel",
    "created_by": "JOSM",
    "name": "Texaco"
  }
},
{
  "type": "node",
  "id": 313365391,
  "lat": 50.3726565,
  "lon": -4.1456842,
  "tags": {
    "amenity": "pub",
    "name": "The Newmarket"
  }
},
{
  "type": "node",
  "id": 364518590,
  "lat": 50.3790711,
  "lon": -4.1176516,
  "tags": {
    "amenity": "place_of_worship",
    "created_by": "Potlatch 0.10f",
    "religion": "christian"
  }
},
{
  "type": "node",
  "id": 364541612,
  "lat": 50.3670529,
  "lon": -4.1248563,
  "tags": {
    "addr:city": "Plymouth",
    "addr:postcode": "PL4 0LG",
    "addr:street": "Shapters Road",
    "amenity": "cinema",
    "cinema:3D": "yes",
    "name": "Vue",
    "phone": "+44 8712 240 240",
    "website": "https://www.myvue.com/home/cinema/plymouth",
    "wheelchair": "yes"
  }
},
{
  "type": "node",
  "id": 364552431,
  "lat": 50.3910127,
  "lon": -4.0890014,
  "tags": {
    "amenity": "restaurant",
    "created_by": "Potlatch 0.10f",
    "name": "Beefeater",
    "wheelchair": "yes",
    "wheelchair:description": "toilets are awkward, also tight ailes to manouver"
  }
},
{
  "type": "node",
  "id": 364553561,
  "lat": 50.3759856,
  "lon": -4.1277298,
  "tags": {
    "amenity": "veterinary"
  }
},
{
  "type": "node",
  "id": 364554560,
  "lat": 50.4127866,
  "lon": -4.0938508,
  "tags": {
    "addr:street": "Colwill Road",
    "amenity": "veterinary",
    "name": "Plymouth Veterinary Hospital",
    "website": "https://www.plymouthvets.co.uk/"
  }
},
{
  "type": "node",
  "id": 364824878,
  "lat": 50.3676016,
  "lon": -4.1341937,
  "tags": {
    "addr:city": "Plymouth",
    "addr:postcode": "PL1 2LS",
    "addr:street": "Whitehouse Pier",
    "amenity": "fast_food",
    "cuisine": "burger",
    "diet:vegetarian": "yes",
    "name": "Cap'n Jaspers",
    "opening_hours": "Mo-Sa 07:30-24:00; Su 08:00-24:00",
    "phone": "+44 1752 262444",
    "smoking": "outside",
    "website": "www.capn-jaspers.co.uk",
    "wheelchair": "yes"
  }
},
{
  "type": "node",
  "id": 364825568,
  "lat": 50.3677568,
  "lon": -4.1292501,
  "tags": {
    "amenity": "restaurant",
    "name": "Lockyers Quay Inn (Brewers Fayre)"
  }
},
{
  "type": "node",
  "id": 364829368,
  "lat": 50.3735148,
  "lon": -4.1267909,
  "tags": {
    "amenity": "place_of_worship",
    "created_by": "Potlatch 0.10f",
    "religion": "muslim"
  }
},
{
  "type": "node",
  "id": 364837251,
  "lat": 50.3760042,
  "lon": -4.1229967,
  "tags": {
    "amenity": "fast_food",
    "name": "St.Judes Grill",
    "survey:date": "2022-03-08"
  }
},
{
  "type": "node",
  "id": 364839879,
  "lat": 50.3782224,
  "lon": -4.1273316,
  "tags": {
    "amenity": "cafe",
    "created_by": "Potlatch 0.10f"
  }
},
{
  "type": "node",
  "id": 364849073,
  "lat": 50.3730842,
  "lon": -4.1279783,
  "tags": {
    "amenity": "doctors",
    "name": "Beaumont Villa Surgery"
  }
},
{
  "type": "node",
  "id": 365043292,
  "lat": 50.3759868,
  "lon": -4.1225364,
  "tags": {
    "amenity": "pharmacy",
    "name": "Boots",
    "operator": "Alliance Pharmacy"
  }
},
{
  "type": "node",
  "id": 365199356,
  "lat": 50.3734336,
  "lon": -4.1190899,
  "tags": {
    "amenity": "public_building",
    "created_by": "Potlatch 0.10f"
  }
},
{
  "type": "node",
  "id": 365393371,
  "lat": 50.3723774,
  "lon": -4.1326519,
  "tags": {
    "amenity": "cafe",
    "created_by": "Potlatch 0.10f",
    "name": "Friary Mill"
  }
},
{
  "type": "node",
  "id": 369044873,
  "lat": 50.3943091,
  "lon": -4.1462494,
  "tags": {
    "amenity": "post_office",
    "name": "Peverell Post Office",
    "opening_hours": "Mo-Fr 09:00-17:00; Sa 09:00-12:30",
    "operator": "Co-op"
  }
},
{
  "type": "node",
  "id": 395482428,
  "lat": 50.3642059,
  "lon": -4.1131049,
  "tags": {
    "amenity": "theatre",
    "name": "Theatre Royal Production Centre",
    "operator": "Theatre Royal"
  }
},
{
  "type": "node",
  "id": 399451826,
  "lat": 50.3656707,
  "lon": -4.1632029,
  "tags": {
    "amenity": "cafe"
  }
},
{
  "type": "node",
  "id": 413714873,
  "lat": 50.3673887,
  "lon": -4.1348146,
  "tags": {
    "amenity": "pub",
    "name": "The Navy",
    "wikidata": "Q26666114"
  }
},
{
  "type": "node",
  "id": 471851512,
  "lat": 50.3746965,
  "lon": -4.1587320,
  "tags": {
    "amenity": "pub",
    "name": "Edgecumbe"
  }
},
{
  "type": "node",
  "id": 503195631,
  "lat": 50.3610129,
  "lon": -4.1301852,
  "tags": {
    "amenity": "ferry_terminal",
    "name": "Mount Batten Ferry"
  }
},
{
  "type": "node",
  "id": 504921037,
  "lat": 50.3746205,
  "lon": -4.1650376,
  "tags": {
    "amenity": "pub",
    "name": "The Albion Inn"
  }
},
{
  "type": "node",
  "id": 514180678,
  "lat": 50.3694826,
  "lon": -4.1458687,
  "tags": {
    "addr:city": "Plymouth",
    "addr:housenumber": "33",
    "addr:postcode": "PL1 2SW",
    "addr:street": "Derry's Cross",
    "amenity": "bar",
    "name": "Fever",
    "opening_hours": "Mo-Tu 11:00-23:00; We 11:00-02:00; Th 11:00-23:00; Fr-Sa 11:00-03:00; Su 11:00-02:00",
    "phone": "+44 1752 257235",
    "smoking": "no"
  }
},
{
  "type": "node",
  "id": 514180698,
  "lat": 50.3696573,
  "lon": -4.1470400,
  "tags": {
    "amenity": "pub",
    "name": "Walkabout",
    "wikidata": "Q79838411"
  }
},
{
  "type": "node",
  "id": 527403388,
  "lat": 50.3715052,
  "lon": -4.1537037,
  "tags": {
    "addr:city": "Plymouth",
    "addr:country": "GB",
    "addr:county": "Devon",
    "addr:housenumber": "97",
    "addr:postcode": "PL1 5JA",
    "addr:street": "King Street",
    "amenity": "pharmacy",
    "brand": "Well Pharmacy",
    "brand:wikidata": "Q7726524",
    "brand:wikipedia": "en:Well Pharmacy",
    "dispensing": "yes",
    "drive_through": "no",
    "healthcare": "pharmacy",
    "name": "Well Pharmacy",
    "opening_hours": "Mo-Fr 09:00-18:00; Sa 09:00-13:00"
  }
},
{
  "type": "node",
  "id": 528757097,
  "lat": 50.3698982,
  "lon": -4.1504003,
  "tags": {
    "amenity": "stripclub",
    "name": "Teasers"
  }
},
{
  "type": "node",
  "id": 528892651,
  "lat": 50.3735451,
  "lon": -4.1369254,
  "tags": {
    "amenity": "fast_food",
    "name": "Jakes"
  }
},
{
  "type": "node",
  "id": 528934250,
  "lat": 50.3749710,
  "lon": -4.1369958,
  "tags": {
    "amenity": "pub",
    "name": "The Skiving Scholar",
    "wikidata": "Q79838323"
  }
},
{
  "type": "node",
  "id": 529742033,
  "lat": 50.3650727,
  "lon": -4.1335669,
  "tags": {
    "amenity": "ferry_terminal",
    "ferry": "yes",
    "name": "Barbican Landing Stage",
    "public_transport": "station"
  }
},
{
  "type": "node",
  "id": 533717601,
  "lat": 50.3674944,
  "lon": -4.1254057,
  "tags": {
    "amenity": "nightclub",
    "name": "Pryzm"
  }
},
{
  "type": "node",
  "id": 599018744,
  "lat": 50.3761073,
  "lon": -4.1839317,
  "tags": {
    "amenity": "ferry_terminal",
    "ferry": "yes",
    "public_transport": "station"
  }
},
{
  "type": "node",
  "id": 687045687,
  "lat": 50.3708079,
  "lon": -4.1195531,
  "tags": {
    "amenity": "restaurant",
    "name": "China Express (delivers)"
  }
},
{
  "type": "node",
  "id": 687319402,
  "lat": 50.3673979,
  "lon": -4.1271747,
  "tags": {
    "amenity": "pub",
    "name": "Thistle Park Tavern",
    "wikidata": "Q79838367"
  }
},
{
  "type": "node",
  "id": 687424018,
  "lat": 50.3700475,
  "lon": -4.1267960,
  "tags": {
    "amenity": "restaurant",
    "name": "Hashbrowns"
  }
},
{
  "type": "node",
  "id": 687510552,
  "lat": 50.3959295,
  "lon": -4.1777414,
  "tags": {
    "amenity": "school",
    "name": "Weston Mill Primary School"
  }
},
{
  "type": "node",
  "id": 690524272,
  "lat": 50.3808417,
  "lon": -4.1333031,
  "tags": {
    "amenity": "pub",
    "name": "Underground"
  }
},
{
  "type": "node",
  "id": 690524347,
  "lat": 50.3752632,
  "lon": -4.1367867,
  "tags": {
    "amenity": "nightclub",
    "name": "Play"
  }
},
{
  "type": "node",
  "id": 690524351,
  "lat": 50.3751401,
  "lon": -4.1368350,
  "tags": {
    "amenity": "pub",
    "name": "Air"
  }
},
{
  "type": "node",
  "id": 690524364,
  "lat": 50.3736827,
  "lon": -4.1374092,
  "tags": {
    "addr:city": "Plymouth",
    "addr:housenumber": "46",
    "addr:postcode": "PL4 8AX",
    "addr:street": "Tavistock place",
    "amenity": "bar",
    "name": "The Caffeine Club",
    "opening_hours": "24/7",
    "website": "http://www.thecaffeineclub.co.uk/"
  }
},
{
  "type": "node",
  "id": 690536339,
  "lat": 50.3681451,
  "lon": -4.1364543,
  "tags": {
    "amenity": "restaurant",
    "name": "Blues Bar & Grill"
  }
},
{
  "type": "node",
  "id": 690536340,
  "lat": 50.3683118,
  "lon": -4.1358637,
  "tags": {
    "amenity": "pub",
    "name": "The Three Crowns",
    "wikidata": "Q26666161"
  }
},
{
  "type": "node",
  "id": 691759121,
  "lat": 50.3691911,
  "lon": -4.1240546,
  "tags": {
    "amenity": "cafe",
    "name": "Thyme Square"
  }
},
{
  "type": "node",
  "id": 715632047,
  "lat": 50.3855184,
  "lon": -4.0957039,
  "tags": {
    "amenity": "fuel",
    "brand": "Esso",
    "brand:wikidata": "Q867662",
    "brand:wikipedia": "en:Esso",
    "fuel:diesel": "yes",
    "fuel:octane_95": "yes",
    "name": "Esso",
    "opening_hours": "24/7 365"
  }
},
{
  "type": "node",
  "id": 749267231,
  "lat": 50.3968542,
  "lon": -4.1457188,
  "tags": {
    "amenity": "pub",
    "name": "Cherry Tree",
    "wikidata": "Q79838082"
  }
},
{
  "type": "node",
  "id": 750039440,
  "lat": 50.3940738,
  "lon": -4.1460104,
  "tags": {
    "amenity": "pharmacy",
    "healthcare": "pharmacy",
    "name": "Well Pharmacy",
    "operator": "Co-op"
  }
},
{
  "type": "node",
  "id": 750485593,
  "lat": 50.3741127,
  "lon": -4.1514457,
  "tags": {
    "amenity": "post_office",
    "brand": "Royal Mail",
    "brand:wikidata": "Q638098",
    "brand:wikipedia": "en:Royal Mail",
    "name": "North Street Post Office",
    "operator": "Royal Mail"
  }
},
{
  "type": "node",
  "id": 750485597,
  "lat": 50.3768975,
  "lon": -4.1534615,
  "tags": {
    "amenity": "doctors",
    "name": "St Barnabas Surgery"
  }
},
{
  "type": "node",
  "id": 756410274,
  "lat": 50.3655795,
  "lon": -4.1638130,
  "tags": {
    "amenity": "ferry_terminal",
    "ferry": "yes",
    "internet_access": "no",
    "name": "Foot Ferry",
    "public_transport": "station"
  }
},
{
  "type": "node",
  "id": 860924268,
  "lat": 50.3754284,
  "lon": -4.1837933,
  "tags": {
    "amenity": "ferry_terminal",
    "ferry": "yes",
    "public_transport": "station"
  }
},
{
  "type": "node",
  "id": 931806929,
  "lat": 50.4346047,
  "lon": -4.1006114,
  "tags": {
    "amenity": "fast_food",
    "name": "Papa Johns Pizza"
  }
},
{
  "type": "node",
  "id": 939726669,
  "lat": 50.3706364,
  "lon": -4.1596159,
  "tags": {
    "amenity": "pub",
    "name": "The Office",
    "wikidata": "Q79838255"
  }
},
{
  "type": "node",
  "id": 1019068156,
  "lat": 50.4239273,
  "lon": -4.1272193,
  "tags": {
    "amenity": "restaurant",
    "name": "Derriford Chinese Takeaway"
  }
},
{
  "type": "node",
  "id": 1028636537,
  "lat": 50.3712850,
  "lon": -4.1587830,
  "tags": {
    "amenity": "cafe",
    "name": "Sandwich Island"
  }
},
{
  "type": "node",
  "id": 1028695583,
  "lat": 50.3790150,
  "lon": -4.1726360,
  "tags": {
    "amenity": "pub",
    "name": "Railway Inn",
    "wikidata": "Q79838291"
  }
},
{
  "type": "node",
  "id": 1088105628,
  "lat": 50.4347892,
  "lon": -4.1006650,
  "tags": {
    "amenity": "post_office",
    "name": "One Stop",
    "opening_hours": "Mo-Su 07:00-21:00",
    "shop": "convenience"
  }
},
{
  "type": "node",
  "id": 1111742763,
  "lat": 50.4351343,
  "lon": -4.1095324,
  "tags": {
    "amenity": "pharmacy",
    "name": "Tesco Pharmacy"
  }
},
{
  "type": "node",
  "id": 1113051805,
  "lat": 50.3668202,
  "lon": -4.1246792,
  "tags": {
    "amenity": "restaurant",
    "name": "Frankie and Benny's",
    "wheelchair": "yes"
  }
},
{
  "type": "node",
  "id": 1113067634,
  "lat": 50.4139932,
  "lon": -4.1259293,
  "tags": {
    "amenity": "restaurant",
    "name": "Fishbone"
  }
},
{
  "type": "node",
  "id": 1119900401,
  "lat": 50.3752237,
  "lon": -4.1924925,
  "tags": {
    "amenity": "ferry_terminal",
    "ferry": "yes",
    "name": "Torpoint Ferry",
    "public_transport": "station"
  }
},
{
  "type": "node",
  "id": 1119900404,
  "lat": 50.3757095,
  "lon": -4.1839524,
  "tags": {
    "amenity": "ferry_terminal",
    "ferry": "yes",
    "name": "Torpoint Ferry",
    "public_transport": "station"
  }
},
{
  "type": "node",
  "id": 1123025982,
  "lat": 50.4072153,
  "lon": -4.1326269,
  "tags": {
    "amenity": "post_office",
    "brand": "Post Office",
    "name": "Select Convenience Store",
    "source": "OS OpenData StreetView"
  }
},
{
  "type": "node",
  "id": 1123026060,
  "lat": 50.4026470,
  "lon": -4.1869540,
  "tags": {
    "amenity": "post_office",
    "name": "St Budeaux Post Office",
    "opening_hours": "Mo-Sa 09:00-17:30",
    "source": "OS OpenData StreetView"
  }
},
{
  "type": "node",
  "id": 1123026074,
  "lat": 50.3888550,
  "lon": -4.1102780,
  "tags": {
    "amenity": "post_office",
    "source": "OS OpenData StreetView"
  }
},
{
  "type": "node",
  "id": 1123026144,
  "lat": 50.3940156,
  "lon": -4.1758329,
  "tags": {
    "amenity": "post_office",
    "source": "OS OpenData StreetView"
  }
},
{
  "type": "node",
  "id": 1123026266,
  "lat": 50.4094668,
  "lon": -4.1503790,
  "tags": {
    "amenity": "post_office",
    "source": "OS OpenData StreetView"
  }
},
{
  "type": "node",
  "id": 1123026311,
  "lat": 50.4259090,
  "lon": -4.1054490,
  "tags": {
    "amenity": "post_office",
    "source": "OS OpenData StreetView"
  }
},
{
  "type": "node",
  "id": 1123026399,
  "lat": 50.4182322,
  "lon": -4.1496645,
  "tags": {
    "amenity": "post_office",
    "name": "Whitleigh Stores",
    "source": "OS OpenData StreetView"
  }
},
{
  "type": "node",
  "id": 1123026407,
  "lat": 50.4049830,
  "lon": -4.1506105,
  "tags": {
    "amenity": "post_office",
    "source": "OS OpenData StreetView"
  }
},
{
  "type": "node",
  "id": 1123026485,
  "lat": 50.4285960,
  "lon": -4.1560684,
  "tags": {
    "amenity": "post_office",
    "name": "Tamerton Foliot Post Office",
    "operator": "Royal Mail",
    "source": "OS OpenData StreetView"
  }
},
{
  "type": "node",
  "id": 1123026539,
  "lat": 50.4188170,
  "lon": -4.1784220,
  "tags": {
    "amenity": "post_office",
    "source": "OS OpenData StreetView"
  }
},
{
  "type": "node",
  "id": 1128156007,
  "lat": 50.3880160,
  "lon": -4.0984380,
  "tags": {
    "amenity": "post_office",
    "source": "OS OpenData StreetView"
  }
},
{
  "type": "node",
  "id": 1128156931,
  "lat": 50.3674420,
  "lon": -4.1363534,
  "tags": {
    "amenity": "post_office",
    "source": "OS OpenData StreetView"
  }
},
{
  "type": "node",
  "id": 1394267568,
  "lat": 50.3672339,
  "lon": -4.1351112,
  "tags": {
    "amenity": "fast_food",
    "cuisine": "fish_and_chips",
    "name": "Harbourside",
    "opening_hours": "Mo 11:00-22:00, Tu-Th 11:00-22:30, Fr,Sa 11:00-23:00, Su 11:00-22:00"
  }
},
{
  "type": "node",
  "id": 1394267599,
  "lat": 50.3670095,
  "lon": -4.1355813,
  "tags": {
    "amenity": "restaurant",
    "cuisine": "greek",
    "name": "Shirley Valentine's Taverna"
  }
},
{
  "type": "node",
  "id": 1394267600,
  "lat": 50.3669345,
  "lon": -4.1347277,
  "tags": {
    "amenity": "pub",
    "name": "Crown and Anchor",
    "wikidata": "Q79838100"
  }
},
{
  "type": "node",
  "id": 1394267640,
  "lat": 50.3670371,
  "lon": -4.1348350,
  "tags": {
    "amenity": "restaurant",
    "cuisine": "fish",
    "name": "Harbourside"
  }
},
{
  "type": "node",
  "id": 1683395123,
  "lat": 50.3753091,
  "lon": -4.1947125,
  "tags": {
    "amenity": "restaurant",
    "name": "Wongs"
  }
},
{
  "type": "node",
  "id": 1683395128,
  "lat": 50.3756084,
  "lon": -4.1953884,
  "tags": {
    "amenity": "bank",
    "atm": "yes",
    "brand": "Barclays",
    "brand:wikidata": "Q245343",
    "brand:wikipedia": "en:Barclays",
    "name": "Barclays",
    "operator": "Barclays Bank PLC",
    "wheelchair": "no"
  }
},
{
  "type": "node",
  "id": 1683396906,
  "lat": 50.3753878,
  "lon": -4.1951256,
  "tags": {
    "amenity": "cafe",
    "name": "Ali's Cafe and Indian"
  }
},
{
  "type": "node",
  "id": 1683398304,
  "lat": 50.3760840,
  "lon": -4.1956620,
  "tags": {
    "amenity": "cafe",
    "name": "Betty's Tea Rooms"
  }
},
{
  "type": "node",
  "id": 1812647854,
  "lat": 50.4204007,
  "lon": -4.1088362,
  "tags": {
    "amenity": "theatre",
    "name": "Drama Theatre"
  }
},
{
  "type": "node",
  "id": 1813822399,
  "lat": 50.4212201,
  "lon": -4.1101797,
  "tags": {
    "amenity": "restaurant",
    "name": "University Caefeteria"
  }
},
{
  "type": "node",
  "id": 1813825294,
  "lat": 50.4199657,
  "lon": -4.1092624,
  "tags": {
    "amenity": "cafe",
    "description": "Staff and Student open kitchen and lunch room",
    "name": "The View"
  }
},
{
  "type": "node",
  "id": 1813825297,
  "lat": 50.4197265,
  "lon": -4.1129746,
  "tags": {
    "amenity": "cafe",
    "name": "The Grandstand Cafe"
  }
},
{
  "type": "node",
  "id": 1867918173,
  "lat": 50.3886800,
  "lon": -4.1102269,
  "tags": {
    "amenity": "fast_food",
    "name": "Fish and Chips"
  }
},
{
  "type": "node",
  "id": 1892969581,
  "lat": 50.3605104,
  "lon": -4.1752810,
  "tags": {
    "amenity": "pub",
    "name": "Edgcumbe Arms",
    "wikidata": "Q26433469"
  }
},
{
  "type": "node",
  "id": 1897074535,
  "lat": 50.3793782,
  "lon": -4.1702789,
  "tags": {
    "amenity": "pub",
    "name": "Pheasant Pluckers"
  }
},
{
  "type": "node",
  "id": 1897074542,
  "lat": 50.3809195,
  "lon": -4.1656110,
  "tags": {
    "amenity": "pub",
    "name": "Stoke Inn",
    "wikidata": "Q79838352"
  }
},
{
  "type": "node",
  "id": 1897074551,
  "lat": 50.3809316,
  "lon": -4.1651499,
  "tags": {
    "amenity": "restaurant",
    "cuisine": "indian",
    "name": "Cafe India"
  }
},
{
  "type": "node",
  "id": 1897074554,
  "lat": 50.3806085,
  "lon": -4.1661786,
  "tags": {
    "amenity": "pub",
    "name": "Masonic Inn",
    "wikidata": "Q79838215"
  }
},
{
  "type": "node",
  "id": 1897074557,
  "lat": 50.3807192,
  "lon": -4.1660732,
  "tags": {
    "amenity": "pub",
    "name": "Blockhouse Inn",
    "wikidata": "Q79838047"
  }
},
{
  "type": "node",
  "id": 1897074562,
  "lat": 50.3801667,
  "lon": -4.1668537,
  "tags": {
    "amenity": "pub",
    "name": "Indian Inn",
    "wikidata": "Q80476793"
  }
},
{
  "type": "node",
  "id": 1897074568,
  "lat": 50.3765422,
  "lon": -4.1696942,
  "tags": {
    "amenity": "pub",
    "name": "The Lounge",
    "wikidata": "Q79838204"
  }
},
{
  "type": "node",
  "id": 1935202184,
  "lat": 50.4001975,
  "lon": -4.1142524,
  "tags": {
    "amenity": "fast_food",
    "name": "Eggbuckland Fish & Chips"
  }
},
{
  "type": "node",
  "id": 1935202788,
  "lat": 50.4003992,
  "lon": -4.1146708,
  "tags": {
    "amenity": "pub",
    "name": "The Prince Maurice",
    "wikidata": "Q79838273"
  }
},
{
  "type": "node",
  "id": 1988547923,
  "lat": 50.3671983,
  "lon": -4.1249823,
  "tags": {
    "addr:city": "Plymouth",
    "addr:postcode": "PL4 0LG",
    "addr:street": "Shapters Road",
    "amenity": "restaurant",
    "brand": "Chiquito",
    "brand:wikidata": "Q5101775",
    "brand:wikipedia": "en:Chiquito (restaurant)",
    "cuisine": "tex-mex",
    "diet:vegan": "yes",
    "diet:vegetarian": "yes",
    "name": "Chiquito",
    "opening_hours": "Mo-Sa 09:00-23:00; Su 09:00-22:30",
    "phone": "+44 1752 228342",
    "smoking": "outside"
  }
},
{
  "type": "node",
  "id": 1988547955,
  "lat": 50.3673661,
  "lon": -4.1251351,
  "tags": {
    "addr:city": "Plymouth",
    "addr:postcode": "PL4 0LG",
    "addr:street": "Shapters Road",
    "amenity": "restaurant",
    "brand": "Nando's",
    "brand:wikidata": "Q3472954",
    "brand:wikipedia": "en:Nando's",
    "cuisine": "chicken;portuguese",
    "name": "Nando's",
    "phone": "+44 1752 664907",
    "smoking": "outside"
  }
},
{
  "type": "node",
  "id": 2139844547,
  "lat": 50.4105404,
  "lon": -4.0954850,
  "tags": {
    "amenity": "doctors",
    "name": "Estover & Leypark Surgeries"
  }
},
{
  "type": "node",
  "id": 2139844551,
  "lat": 50.4109089,
  "lon": -4.0952193,
  "tags": {
    "amenity": "dentist",
    "name": "Addy Dental Practise (NHS)"
  }
},
{
  "type": "node",
  "id": 2210117282,
  "lat": 50.3582020,
  "lon": -4.1234485,
  "tags": {
    "amenity": "fuel",
    "seamark:small_craft_facility:category": "fuel_station",
    "seamark:type": "small_craft_facility"
  }
},
{
  "type": "node",
  "id": 2379389495,
  "lat": 50.4188489,
  "lon": -4.1784849,
  "tags": {
    "addr:city": "PLYMOUTH",
    "addr:housenumber": "3",
    "addr:postcode": "PL5 2TQ",
    "addr:street": "Hornchurch Road",
    "amenity": "library",
    "name": "Ernesettle Library",
    "operator": "Plymouth City Council"
  }
},
{
  "type": "node",
  "id": 2485042712,
  "lat": 50.3810130,
  "lon": -4.1111883,
  "tags": {
    "amenity": "theatre",
    "name": "Muse Theatre"
  }
},
{
  "type": "node",
  "id": 2486324609,
  "lat": 50.3686127,
  "lon": -4.1501396,
  "tags": {
    "amenity": "bar"
  }
},
{
  "type": "node",
  "id": 2486324610,
  "lat": 50.3688432,
  "lon": -4.1497234,
  "tags": {
    "amenity": "food_court"
  }
},
{
  "type": "node",
  "id": 2486698317,
  "lat": 50.3683938,
  "lon": -4.1501709,
  "tags": {
    "amenity": "theatre"
  }
},
{
  "type": "node",
  "id": 2487905840,
  "lat": 50.3698385,
  "lon": -4.1450771,
  "tags": {
    "amenity": "restaurant",
    "name": "Theatre Royal Restaurant",
    "smoking": "no"
  }
},
{
  "type": "node",
  "id": 2487905843,
  "lat": 50.3699905,
  "lon": -4.1447748,
  "tags": {
    "amenity": "bar",
    "name": "Theatre Royal Bars",
    "smoking": "no"
  }
},
{
  "type": "node",
  "id": 2487926686,
  "lat": 50.3694757,
  "lon": -4.1461369,
  "tags": {
    "amenity": "bar",
    "brand": "Revolution",
    "brand:wikidata": "Q64024398",
    "name": "Revolution"
  }
},
{
  "type": "node",
  "id": 2487956526,
  "lat": 50.3687053,
  "lon": -4.1437422,
  "tags": {
    "amenity": "restaurant",
    "name": "Fletcher's"
  }
},
{
  "type": "node",
  "id": 2522167415,
  "lat": 50.3642185,
  "lon": -4.1489534,
  "tags": {
    "addr:city": "Plymouth",
    "addr:postcode": "PL1 3BX",
    "amenity": "place_of_worship",
    "denomination": "greek_orthodox",
    "name": "St Demetrios & St Nikitas Greek Orthodox Church",
    "religion": "christian",
    "website": "http://plymchurch.com/"
  }
},
{
  "type": "node",
  "id": 2524769588,
  "lat": 50.3718974,
  "lon": -4.1789453,
  "tags": {
    "amenity": "place_of_worship",
    "name": "St Loe's Church (Site Of)",
    "religion": "christian"
  }
},
{
  "type": "node",
  "id": 2524777402,
  "lat": 50.3865758,
  "lon": -4.1689745,
  "tags": {
    "amenity": "place_of_worship",
    "name": "St Mark's",
    "religion": "christian"
  }
},
{
  "type": "node",
  "id": 2524782647,
  "lat": 50.3859932,
  "lon": -4.1694490,
  "tags": {
    "amenity": "place_of_worship",
    "name": "Ford Baptist Church",
    "religion": "christian"
  }
},
{
  "type": "node",
  "id": 2601381830,
  "lat": 50.3661146,
  "lon": -4.1342637,
  "tags": {
    "amenity": "pub",
    "name": "Admiral MacBride",
    "wikidata": "Q80476550"
  }
},
{
  "type": "node",
  "id": 2613501724,
  "lat": 50.3790890,
  "lon": -4.1388290,
  "tags": {
    "amenity": "cafe",
    "name": "World Peace Cafe"
  }
},
{
  "type": "node",
  "id": 2613571829,
  "lat": 50.3790890,
  "lon": -4.1388180,
  "tags": {
    "amenity": "place_of_worship",
    "name": "Ashoka Kadampa Buddhist Centre",
    "religion": "buddhist",
    "wheelchair": "limited"
  }
},
{
  "type": "node",
  "id": 2621174989,
  "lat": 50.3599769,
  "lon": -4.0907510,
  "tags": {
    "amenity": "post_office",
    "name": "Plymstock Post Office",
    "opening_hours": "Mo-Fr 07:00-18:00; Sa 08:00-18:00; Su 08:00-13:00"
  }
},
{
  "type": "node",
  "id": 2621174994,
  "lat": 50.3607666,
  "lon": -4.0998264,
  "tags": {
    "amenity": "place_of_worship",
    "denomination": "united_reformed",
    "name": "Plymstock United Church",
    "religion": "christian"
  }
},
{
  "type": "node",
  "id": 2783743458,
  "lat": 50.3689723,
  "lon": -4.1342020,
  "tags": {
    "amenity": "pub",
    "name": "Marina Bar",
    "source": "Note 148639",
    "wikidata": "Q79838210"
  }
},
{
  "type": "node",
  "id": 2916278425,
  "lat": 50.4012320,
  "lon": -4.0948415,
  "tags": {
    "addr:city": "Plymouth",
    "addr:country": "GB",
    "addr:housename": "Windmill Inn",
    "addr:street": "Thurlestone Walk",
    "amenity": "pub",
    "name": "Windmill Inn",
    "wikidata": "Q79838423"
  }
},
{
  "type": "node",
  "id": 2917958275,
  "lat": 50.3723374,
  "lon": -4.1335233,
  "tags": {
    "addr:city": "Plymouth",
    "addr:country": "GB",
    "addr:housenumber": "67C",
    "addr:street": "Ebrington Street",
    "amenity": "fast_food",
    "cuisine": "pizza",
    "name": "Aroma Woodfired Pizza"
  }
},
{
  "type": "node",
  "id": 2917958276,
  "lat": 50.3682447,
  "lon": -4.1359891,
  "tags": {
    "amenity": "nightclub",
    "name": "Barbican Live Lounge"
  }
},
{
  "type": "node",
  "id": 2917958277,
  "lat": 50.3676225,
  "lon": -4.1361461,
  "tags": {
    "amenity": "fast_food",
    "name": "Barbican Pasty Co"
  }
},
{
  "type": "node",
  "id": 2917958278,
  "lat": 50.3662532,
  "lon": -4.1343359,
  "tags": {
    "amenity": "theatre",
    "name": "Barbican Theatre"
  }
},
{
  "type": "node",
  "id": 2917958279,
  "lat": 50.3713754,
  "lon": -4.1336157,
  "tags": {
    "amenity": "cafe",
    "name": "Cafe KISS"
  }
},
{
  "type": "node",
  "id": 2917958281,
  "lat": 50.3707951,
  "lon": -4.1341575,
  "tags": {
    "amenity": "fast_food",
    "cuisine": "indian",
    "name": "Curry King"
  }
},
{
  "type": "node",
  "id": 2917958283,
  "lat": 50.3701161,
  "lon": -4.1344921,
  "tags": {
    "amenity": "restaurant",
    "cuisine": "chinese",
    "name": "Fortune Court"
  }
},
{
  "type": "node",
  "id": 2917958284,
  "lat": 50.3674380,
  "lon": -4.1362543,
  "tags": {
    "amenity": "restaurant",
    "name": "Meze Grill"
  }
},
{
  "type": "node",
  "id": 2917958286,
  "lat": 50.3696480,
  "lon": -4.1352508,
  "tags": {
    "amenity": "restaurant",
    "name": "Fuel",
    "wikidata": "Q79838268"
  }
},
{
  "type": "node",
  "id": 2917958288,
  "lat": 50.3696239,
  "lon": -4.1352283,
  "tags": {
    "amenity": "fast_food",
    "cuisine": "chinese",
    "name": "Sizzling China"
  }
},
{
  "type": "node",
  "id": 2917958289,
  "lat": 50.3723932,
  "lon": -4.1338999,
  "tags": {
    "addr:city": "Plymouth",
    "addr:country": "GB",
    "addr:housenumber": "61A",
    "addr:street": "Ebrington Street",
    "amenity": "pharmacy",
    "dispensing": "yes",
    "healthcare": "pharmacy",
    "name": "T.C.E. O'Gallagers"
  }
},
{
  "type": "node",
  "id": 2917958290,
  "lat": 50.3676766,
  "lon": -4.1355330,
  "tags": {
    "amenity": "pub",
    "name": "The Cider Press",
    "wikidata": "Q26666059"
  }
},
{
  "type": "node",
  "id": 2917958291,
  "lat": 50.3671752,
  "lon": -4.1348904,
  "tags": {
    "amenity": "pub",
    "name": "The Dolphin Hotel",
    "wikidata": "Q5289629"
  }
},
{
  "type": "node",
  "id": 2917958292,
  "lat": 50.3693347,
  "lon": -4.1341618,
  "tags": {
    "addr:city": "Plymouth",
    "addr:housename": "Fandom",
    "addr:postcode": "PL4 0DW",
    "addr:street": "Sutton Wharf",
    "amenity": "restaurant",
    "cuisine": "burger",
    "name": "Fandom"
  }
},
{
  "type": "node",
  "id": 2917958293,
  "lat": 50.3705514,
  "lon": -4.1347965,
  "tags": {
    "amenity": "restaurant",
    "cuisine": "asian",
    "name": "The Ganges"
  }
},
{
  "type": "node",
  "id": 2917958294,
  "lat": 50.3677772,
  "lon": -4.1363627,
  "tags": {
    "amenity": "pub",
    "name": "The Maritime Inn",
    "wikidata": "Q26666163"
  }
},
{
  "type": "node",
  "id": 2917958295,
  "lat": 50.3677114,
  "lon": -4.1359482,
  "tags": {
    "amenity": "pub",
    "name": "The Ship",
    "outdoor_seating": "yes",
    "wikidata": "Q26666058"
  }
},
{
  "type": "node",
  "id": 2917958296,
  "lat": 50.3705375,
  "lon": -4.1350871,
  "tags": {
    "amenity": "restaurant",
    "cuisine": "indian",
    "name": "The Jaipur Palace"
  }
},
{
  "type": "node",
  "id": 2917958297,
  "lat": 50.3701895,
  "lon": -4.1354154,
  "tags": {
    "amenity": "restaurant",
    "cuisine": "nepalese",
    "name": "Pahuna"
  }
},
{
  "type": "node",
  "id": 2997533157,
  "lat": 50.3616299,
  "lon": -4.1668463,
  "tags": {
    "amenity": "restaurant",
    "cuisine": "regional",
    "name": "River Cottage Canteen, Plymouth",
    "smoking": "no",
    "website": "https://www.rivercottage.net/canteens/plymouth/"
  }
},
{
  "type": "node",
  "id": 2998263415,
  "lat": 50.3617090,
  "lon": -4.1657005,
  "tags": {
    "amenity": "restaurant",
    "cuisine": "latin_american",
    "name": "Las Iguanas",
    "website": "https://www.iguanas.co.uk/restaurants/plymouth/",
    "wheelchair": "yes"
  }
},
{
  "type": "node",
  "id": 3046291333,
  "lat": 50.3666046,
  "lon": -4.1345516,
  "tags": {
    "amenity": "cafe",
    "name": "Strand Tea Rooms"
  }
},
{
  "type": "node",
  "id": 3084499944,
  "lat": 50.3821402,
  "lon": -4.0831707,
  "tags": {
    "amenity": "cafe",
    "name": "Chapel Teamroom"
  }
},
{
  "type": "node",
  "id": 3132920005,
  "lat": 50.3579148,
  "lon": -4.1234273,
  "tags": {
    "addr:city": "Plymouth",
    "addr:housename": "The Bridge",
    "addr:housenumber": "33",
    "addr:postcode": "PL9 9XH",
    "addr:street": "Shaw Way",
    "amenity": "restaurant",
    "cuisine": "british",
    "name": "The Bridge",
    "smoking": "outside",
    "wikidata": "Q79838063"
  }
},
{
  "type": "node",
  "id": 3285519320,
  "lat": 50.3993779,
  "lon": -4.1355683,
  "tags": {
    "amenity": "fuel",
    "name": "BP"
  }
},
{
  "type": "node",
  "id": 3285623491,
  "lat": 50.3891960,
  "lon": -4.1299870,
  "tags": {
    "amenity": "pharmacy",
    "name": "Boots"
  }
},
{
  "type": "node",
  "id": 3285633582,
  "lat": 50.3896967,
  "lon": -4.1290557,
  "tags": {
    "amenity": "doctors",
    "name": "The Mannamead Surgery"
  }
},
{
  "type": "node",
  "id": 3435845294,
  "lat": 50.3706207,
  "lon": -4.1319655,
  "tags": {
    "addr:city": "Plymouth",
    "addr:housenumber": "6",
    "addr:postcode": "PL4 0BJ",
    "addr:street": "Harbour Avenue",
    "amenity": "cafe",
    "cuisine": "regional;Traditional_english_tearooms_providing_home_made_cakes_etc.",
    "description": "Traditional English tearooms providing home-made cakes etc.",
    "internet_access": "yes",
    "internet_access:fee": "no",
    "internet_access:ssid": "EE-BrightBox-rgy9rb",
    "name": "Daisy's Tea Rooms and Coffee Shop",
    "opening_hours": "Mo-Su 10:00-16:00",
    "phone": "+44 1752 257933;+44 7463 779774",
    "smoking": "no"
  }
},
{
  "type": "node",
  "id": 3518872863,
  "lat": 50.4179629,
  "lon": -4.1075164,
  "tags": {
    "amenity": "cafe",
    "name": "Park Central"
  }
},
{
  "type": "node",
  "id": 3535243596,
  "lat": 50.3722842,
  "lon": -4.1781715,
  "tags": {
    "addr:city": "plymouth UK",
    "amenity": "restaurant",
    "fixme": "This is in the wrong place",
    "name": "glassblowing house",
    "wheelchair": "yes",
    "wheelchair:description": "very accomodating staff and very accessible"
  }
},
{
  "type": "node",
  "id": 3535354493,
  "lat": 50.3722941,
  "lon": -4.1785878,
  "tags": {
    "amenity": "cafe",
    "name": "rockets and Rascals",
    "tourism": "viewpoint",
    "wheelchair": "no",
    "wheelchair:description": "amazing cake and coffee"
  }
},
{
  "type": "node",
  "id": 3695780371,
  "lat": 50.3644300,
  "lon": -4.1502554,
  "tags": {
    "addr:city": "Plymouth",
    "addr:country": "GB",
    "addr:housenumber": "1",
    "addr:postcode": "PL1 3BY",
    "addr:street": "Radford Road",
    "amenity": "college",
    "email": "english@maycoll.co.uk",
    "name": "Mayflower College",
    "phone": "+44 1752 673784",
    "website": "https://www.maycoll.co.uk/"
  }
},
{
  "type": "node",
  "id": 3826880798,
  "lat": 50.3678242,
  "lon": -4.1378169,
  "tags": {
    "amenity": "bar",
    "name": "Plymouth Gin Bar and Shop"
  }
},
{
  "type": "node",
  "id": 3957355076,
  "lat": 50.3691236,
  "lon": -4.1237335,
  "tags": {
    "amenity": "pharmacy",
    "name": "Boots Pharmacy",
    "operator": "Boots"
  }
},
{
  "type": "node",
  "id": 3964447310,
  "lat": 50.3724273,
  "lon": -4.1375557,
  "tags": {
    "addr:city": "Plymouth",
    "addr:housename": "Cafe Curve",
    "addr:postcode": "PL1 1EA",
    "addr:street": "Drake Circus",
    "amenity": "cafe",
    "level": "2",
    "name": "Cafe Curva"
  }
},
{
  "type": "node",
  "id": 3985705315,
  "lat": 50.4087450,
  "lon": -4.0960964,
  "tags": {
    "addr:city": "Plymouth",
    "addr:housenumber": "123",
    "addr:postcode": "PL6 8UF",
    "addr:street": "Leypark Walk",
    "amenity": "doctors",
    "name": "ELM Surgery"
  }
},
{
  "type": "node",
  "id": 4047401803,
  "lat": 50.3774875,
  "lon": -4.1438485,
  "tags": {
    "addr:city": "Plymouth",
    "addr:housename": "Plymouth railway station concourse",
    "amenity": "cafe",
    "brand": "Pumpkin",
    "brand:wikidata": "Q27825961",
    "brand:wikipedia": "en:Pumpkin Café Shop",
    "cuisine": "coffee_shop",
    "name": "Pumpkin",
    "opening_hours": "Mo-Fr 05:30-18:00, Sa 06:15-18:00, Su 09:00-18:00",
    "takeaway": "yes"
  }
},
{
  "type": "node",
  "id": 4087203065,
  "lat": 50.3756041,
  "lon": -4.1324569,
  "tags": {
    "amenity": "restaurant",
    "cuisine": "indian",
    "delivery": "yes",
    "name": "Little India",
    "takeaway": "only"
  }
},
{
  "type": "node",
  "id": 4091010683,
  "lat": 50.3763776,
  "lon": -4.1379031,
  "tags": {
    "amenity": "restaurant",
    "delivery": "no",
    "name": "Reservoir Café",
    "opening_hours": "Mo-Fr 08:30-16:00",
    "wheelchair": "yes"
  }
},
{
  "type": "node",
  "id": 4091053589,
  "lat": 50.3761908,
  "lon": -4.1394734,
  "tags": {
    "amenity": "restaurant",
    "name": "Drake's Kitchen",
    "opening_hours": "Mo-Fr 07:30-17:00",
    "wheelchair": "yes"
  }
},
{
  "type": "node",
  "id": 4218262496,
  "lat": 50.4114295,
  "lon": -4.1006725,
  "tags": {
    "addr:city": "Plymouth",
    "addr:housename": "Tor Bridge High",
    "addr:postcode": "PL6 8UN",
    "addr:street": "Miller Way",
    "amenity": "library",
    "level": "0",
    "name": "Estover Library",
    "note": "Public library within the Tor Bridge High campus",
    "operator": "Plymouth City Council",
    "phone": "+44 1752 312502",
    "wikidata": "Q53550591"
  }
},
{
  "type": "node",
  "id": 4228229776,
  "lat": 50.3722810,
  "lon": -4.1352210,
  "tags": {
    "addr:city": "Plymouth",
    "addr:housenumber": "41",
    "addr:postcode": "PL4 9AA",
    "addr:street": "Ebrington Street",
    "amenity": "place_of_worship",
    "name": "Church of Scientology of Plymouth",
    "religion": "scientologist"
  }
},
{
  "type": "node",
  "id": 4252231011,
  "lat": 50.3872033,
  "lon": -4.1602322,
  "tags": {
    "amenity": "doctors"
  }
},
{
  "type": "node",
  "id": 4301384025,
  "lat": 50.4048135,
  "lon": -4.2013167,
  "tags": {
    "amenity": "pub",
    "name": "Ferry House Inn",
    "wikidata": "Q79838136"
  }
},
{
  "type": "node",
  "id": 4308106996,
  "lat": 50.3669436,
  "lon": -4.1410810,
  "tags": {
    "addr:city": "Plymouth",
    "addr:housenumber": "159",
    "addr:postcode": "PL1 2HU",
    "addr:street": "Citadel Road",
    "amenity": "pub",
    "name": "Pub On The Hoe",
    "opening_hours": "Mo-Su 11:00-24:00",
    "wikidata": "Q79838278"
  }
},
{
  "type": "node",
  "id": 4308106998,
  "lat": 50.3644028,
  "lon": -4.1483417,
  "tags": {
    "amenity": "cafe",
    "internet_access": "wlan",
    "name": "By The Park",
    "opening_hours": "Tu-Fr 09:30-16:30; Sa-Su 09:30-17:00",
    "website": "https://bytheparkcafe.com/"
  }
},
{
  "type": "node",
  "id": 4308106999,
  "lat": 50.3653028,
  "lon": -4.1507584,
  "tags": {
    "amenity": "pub",
    "name": "The West Hoe",
    "wikidata": "Q79838417"
  }
},
{
  "type": "node",
  "id": 4308107000,
  "lat": 50.3653763,
  "lon": -4.1508040,
  "tags": {
    "amenity": "cafe",
    "name": "Port O'Call"
  }
},
{
  "type": "node",
  "id": 4381931291,
  "lat": 50.3732308,
  "lon": -4.1450677,
  "tags": {
    "addr:city": "PLYMOUTH",
    "addr:housenumber": "111",
    "addr:postcode": "PL1 1SD",
    "addr:street": "Mayflower Street",
    "amenity": "restaurant",
    "cuisine": "american",
    "diet:vegan": "yes",
    "name": "Samphire Brasserie",
    "opening_hours": "Tu 12:00-15:00; We 12:00-15:00,05:00-21:00; Th 12:00-15:00,05:00-21:00; Fr 12:00-15:00,05:00-21:00; Sa 12:00-15:00,05:00-21:00; Su off",
    "takeaway": "yes"
  }
},
{
  "type": "node",
  "id": 4536400071,
  "lat": 50.4071742,
  "lon": -4.1333484,
  "tags": {
    "amenity": "pub",
    "name": "The Tamar",
    "wikidata": "Q79838365"
  }
},
{
  "type": "node",
  "id": 4690617681,
  "lat": 50.4353108,
  "lon": -4.1072440,
  "tags": {
    "addr:country": "GB",
    "amenity": "fast_food",
    "brand": "Domino's",
    "brand:wikidata": "Q839466",
    "brand:wikipedia": "en:Domino's Pizza",
    "contact:website": "https://www.dominos.co.uk/pizza-near-me/plymouth/unit-a-woolwell-crescent",
    "cuisine": "pizza",
    "name": "Domino's",
    "takeaway": "yes"
  }
},
{
  "type": "node",
  "id": 4767764161,
  "lat": 50.3770042,
  "lon": -4.1358278,
  "tags": {
    "amenity": "fast_food",
    "brand": "Subway",
    "brand:wikidata": "Q244457",
    "brand:wikipedia": "en:Subway (restaurant)",
    "cuisine": "sandwich",
    "name": "Subway",
    "takeaway": "yes"
  }
},
{
  "type": "node",
  "id": 4796836438,
  "lat": 50.4048874,
  "lon": -4.1887532,
  "tags": {
    "addr:city": "Plymouth",
    "addr:postcode": "PL5 1PL",
    "addr:street": "Stirling Road",
    "amenity": "doctors",
    "healthcare": "doctor",
    "name": "Ocean Health Group",
    "website": "http://oceanhealthgroup.co.uk/"
  }
},
{
  "type": "node",
  "id": 4848596008,
  "lat": 50.3716960,
  "lon": -4.1358099,
  "tags": {
    "amenity": "place_of_worship",
    "description": "Bombed during World War 2. Commonly referred to as the \"bombed out church\" by Plymouthians.",
    "name": "Charles Cross Church",
    "religion": "christian",
    "wheelchair": "no"
  }
},
{
  "type": "node",
  "id": 4848596164,
  "lat": 50.4294051,
  "lon": -4.1351090,
  "tags": {
    "amenity": "pub",
    "name": "The Falstaff",
    "wikidata": "Q79838131"
  }
},
{
  "type": "node",
  "id": 4895317533,
  "lat": 50.3885021,
  "lon": -4.0941115,
  "tags": {
    "amenity": "animal_shelter",
    "name": "Ponderosa Pony Rescue"
  }
},
{
  "type": "node",
  "id": 4937852527,
  "lat": 50.3624931,
  "lon": -4.1626878,
  "tags": {
    "addr:housenumber": "160",
    "addr:postcode": "PL1 3RB",
    "addr:street": "Cremyll Street",
    "amenity": "cafe",
    "internet_access": "wlan",
    "name": "The Hutong",
    "opening_hours": "We-Mo 07:30-17:30",
    "outdoor_seating": "yes",
    "website": "https://facebook.com/TheHutongCafe/"
  }
},
{
  "type": "node",
  "id": 4942060328,
  "lat": 50.3947038,
  "lon": -4.0847117,
  "tags": {
    "amenity": "driving_school",
    "name": "1st Class Motorcycle Training"
  }
},
{
  "type": "node",
  "id": 4944325021,
  "lat": 50.3604492,
  "lon": -4.1298335,
  "tags": {
    "amenity": "restaurant",
    "diet:vegetarian": "yes",
    "name": "Mount Batten Bar",
    "name:en": "Mount Batten Bar",
    "opening_hours": "Mo-Sa 12:00-23:00, Su 12:00-10:30"
  }
},
{
  "type": "node",
  "id": 4944343522,
  "lat": 50.3608540,
  "lon": -4.0921943,
  "tags": {
    "amenity": "childcare",
    "name": "Kenleys Day Nursery Ltd",
    "name:en": "Kenleys Day Nursery Ltd"
  }
},
{
  "type": "node",
  "id": 4944364421,
  "lat": 50.3614031,
  "lon": -4.0908281,
  "tags": {
    "amenity": "dentist",
    "name": "Oasis Dental Surgery",
    "name:en": "Oasis Dental Surgery"
  }
},
{
  "type": "node",
  "id": 4954602778,
  "lat": 50.3714352,
  "lon": -4.1291242,
  "tags": {
    "amenity": "cafe",
    "brand": "Costa",
    "brand:wikidata": "Q608845",
    "brand:wikipedia": "en:Costa Coffee",
    "cuisine": "coffee_shop",
    "name": "Costa",
    "takeaway": "yes"
  }
},
{
  "type": "node",
  "id": 4962089422,
  "lat": 50.3652867,
  "lon": -4.1013967,
  "tags": {
    "amenity": "car_wash",
    "automated": "yes",
    "name": "IMO Car Wash",
    "self_service": "no"
  }
},
{
  "type": "node",
  "id": 4963690176,
  "lat": 50.4049776,
  "lon": -4.1504676,
  "tags": {
    "amenity": "fast_food"
  }
},
{
  "type": "node",
  "id": 4964147378,
  "lat": 50.4354409,
  "lon": -4.1069823,
  "tags": {
    "amenity": "veterinary",
    "name": "Vets4Pet"
  }
},
{
  "type": "node",
  "id": 5077107127,
  "lat": 50.3767014,
  "lon": -4.1166604,
  "tags": {
    "amenity": "fast_food",
    "cuisine": "fish_and_chips",
    "name": "Atlantic Frier"
  }
},
{
  "type": "node",
  "id": 5209179128,
  "lat": 50.4092552,
  "lon": -4.1326857,
  "tags": {
    "amenity": "fast_food",
    "delivery": "no",
    "drive_through": "no",
    "name": "Warrens Bakery",
    "outdoor_seating": "no",
    "smoking": "no"
  }
},
{
  "type": "node",
  "id": 5290017943,
  "lat": 50.3628166,
  "lon": -4.0832966,
  "tags": {
    "amenity": "cafe",
    "name": "Cafe Library"
  }
},
{
  "type": "node",
  "id": 5290321444,
  "lat": 50.3593166,
  "lon": -4.0940669,
  "tags": {
    "amenity": "fast_food",
    "cuisine": "fish_and_chips",
    "name": "Smithy's Fish & Chips"
  }
},
{
  "type": "node",
  "id": 5290321445,
  "lat": 50.3592940,
  "lon": -4.0941412,
  "tags": {
    "amenity": "fast_food",
    "cuisine": "indian",
    "name": "Saffron Indian Take Away"
  }
},
{
  "type": "node",
  "id": 5290321446,
  "lat": 50.3592680,
  "lon": -4.0942314,
  "tags": {
    "amenity": "fast_food",
    "cuisine": "pizza",
    "name": "Pizza King"
  }
},
{
  "type": "node",
  "id": 5586393913,
  "lat": 50.3742842,
  "lon": -4.1947967,
  "tags": {
    "addr:city": "Torpoint",
    "addr:country": "GB",
    "addr:postcode": "PL11 2AG",
    "addr:street": "Fore Street",
    "amenity": "pub",
    "fhrs:id": "510823",
    "name": "King's Arms",
    "source:addr": "FHRS Open Data",
    "toilets": "yes",
    "toilets:wheelchair": "yes",
    "wheelchair": "yes"
  }
},
{
  "type": "node",
  "id": 5586393915,
  "lat": 50.3658672,
  "lon": -4.1345658,
  "tags": {
    "amenity": "pub",
    "name": "The Fisherman's Arms",
    "phone": "+44 1752 268243",
    "real_fire": "yes",
    "website": "fishermansarms.co.uk",
    "wikidata": "Q79838144"
  }
},
{
  "type": "node",
  "id": 5586403428,
  "lat": 50.3753296,
  "lon": -4.1942104,
  "tags": {
    "amenity": "pub",
    "name": "Queen's Arms",
    "toilets:wheelchair": "no",
    "wheelchair": "limited"
  }
},
{
  "type": "node",
  "id": 5586403429,
  "lat": 50.3654828,
  "lon": -4.1341084,
  "tags": {
    "amenity": "cafe",
    "name": "Boathouse"
  }
},
{
  "type": "node",
  "id": 5586403727,
  "lat": 50.3675157,
  "lon": -4.1375567,
  "tags": {
    "amenity": "pub",
    "name": "The Gog and Magog Wetherspoons"
  }
},
{
  "type": "node",
  "id": 5603390228,
  "lat": 50.3773664,
  "lon": -4.1444683,
  "tags": {
    "amenity": "police",
    "email": "61016@btp.pnn.police.uk",
    "name": "British Transport Police",
    "opening_hours": "24/7",
    "phone": "+44 800 405040",
    "website": "http://www.btp.police.uk"
  }
},
{
  "type": "node",
  "id": 5997746486,
  "lat": 50.3856673,
  "lon": -4.1387642,
  "tags": {
    "addr:city": "Plymouth",
    "addr:housenumber": "5",
    "addr:postcode": "PL3 4JQ",
    "addr:street": "St Gabriel's Avenue",
    "amenity": "bar",
    "name": "Hyde Park Social Club",
    "opening_hours": "Mo-Th 11:00-23:00; Fr-Sa 11:00-00:00; Su 12:00-23:00"
  }
},
{
  "type": "node",
  "id": 6003109485,
  "lat": 50.3695813,
  "lon": -4.1363832,
  "tags": {
    "amenity": "pub",
    "name": "Minerva",
    "name:en": "Minerva",
    "wikidata": "Q26665945"
  }
},
{
  "type": "node",
  "id": 6016216676,
  "lat": 50.3960629,
  "lon": -4.1624156,
  "tags": {
    "amenity": "fast_food",
    "name": "Subham"
  }
},
{
  "type": "node",
  "id": 6016216677,
  "lat": 50.3961101,
  "lon": -4.1623152,
  "tags": {
    "amenity": "pharmacy",
    "brand": "Well Pharmacy",
    "brand:wikidata": "Q7726524",
    "brand:wikipedia": "en:Well Pharmacy",
    "dispensing": "yes",
    "healthcare": "pharmacy",
    "name": "Well Pharmacy"
  }
},
{
  "type": "node",
  "id": 6016217200,
  "lat": 50.3929852,
  "lon": -4.1664903,
  "tags": {
    "amenity": "library"
  }
},
{
  "type": "node",
  "id": 6036538415,
  "lat": 50.3640965,
  "lon": -4.1406331,
  "tags": {
    "amenity": "ice_cream"
  }
},
{
  "type": "node",
  "id": 6052687430,
  "lat": 50.4093956,
  "lon": -4.0964323,
  "tags": {
    "amenity": "pharmacy",
    "brand": "Asda",
    "brand:wikidata": "Q297410",
    "brand:wikipedia": "en:Asda",
    "contact:phone": "+44 1752 237860",
    "contact:website": "https://storelocator.asda.com/south-west/plymouth/leypark-drive-estover/pharmacy",
    "dispensing": "yes",
    "drive_through": "no",
    "healthcare": "pharmacy",
    "level": "-1",
    "name": "Asda",
    "operator": "Asda Stores Ltd"
  }
},
{
  "type": "node",
  "id": 6119713785,
  "lat": 50.3582905,
  "lon": -4.1176701,
  "tags": {
    "addr:country": "GB",
    "addr:housenumber": "13",
    "addr:postcode": "PL9 9TQ",
    "addr:street": "Boringdon Terrace",
    "amenity": "pub",
    "email": "boringdonarmsinfo@gmail.com",
    "name": "Boringdon Arms",
    "phone": "+44 1752 402053",
    "website": "http://www.boringdon-arms.net",
    "wikidata": "Q79838056"
  }
},
{
  "type": "node",
  "id": 6250709013,
  "lat": 50.3689621,
  "lon": -4.1309663,
  "tags": {
    "amenity": "restaurant",
    "name": "Suphas Street Food Emporium",
    "opening_hours": "Tu, Su 12:00-21:00; We-Sa 12:00-22:00"
  }
},
{
  "type": "node",
  "id": 6314489308,
  "lat": 50.3961616,
  "lon": -4.1621995,
  "tags": {
    "amenity": "post_office",
    "name": "Ham Green Post Office",
    "operator": "Royal Mail"
  }
},
{
  "type": "node",
  "id": 6586717654,
  "lat": 50.3971279,
  "lon": -4.1461905,
  "tags": {
    "amenity": "pub",
    "name": "Pennycross Social Club"
  }
},
{
  "type": "node",
  "id": 6586851908,
  "lat": 50.3996463,
  "lon": -4.1840281,
  "tags": {
    "alt_name": "Kentucky Fried Chicken",
    "amenity": "fast_food",
    "brand": "KFC",
    "brand:wikidata": "Q524757",
    "brand:wikipedia": "en:KFC",
    "cuisine": "chicken",
    "drive_through": "yes",
    "name": "KFC",
    "operator": "KFC",
    "takeaway": "yes"
  }
},
{
  "type": "node",
  "id": 6719064685,
  "lat": 50.3722955,
  "lon": -4.1348698,
  "tags": {
    "amenity": "restaurant",
    "cuisine": "chinese",
    "name": "Imperial Garden"
  }
},
{
  "type": "node",
  "id": 6719064687,
  "lat": 50.3721524,
  "lon": -4.1376775,
  "tags": {
    "amenity": "cafe",
    "brand": "Costa",
    "brand:wikidata": "Q608845",
    "brand:wikipedia": "en:Costa Coffee",
    "cuisine": "coffee_shop",
    "level": "0",
    "name": "Costa",
    "takeaway": "yes"
  }
},
{
  "type": "node",
  "id": 6719064688,
  "lat": 50.3723141,
  "lon": -4.1374053,
  "tags": {
    "amenity": "cafe",
    "brand": "Starbucks",
    "brand:wikidata": "Q37158",
    "brand:wikipedia": "en:Starbucks",
    "cuisine": "coffee_shop",
    "level": "0",
    "name": "Starbucks",
    "official_name": "Starbucks Coffee",
    "takeaway": "yes"
  }
},
{
  "type": "node",
  "id": 6719064692,
  "lat": 50.3724911,
  "lon": -4.1391072,
  "tags": {
    "amenity": "restaurant",
    "brand": "Bill's",
    "brand:wikidata": "Q47012702",
    "brand:wikipedia": "en:Bill's",
    "cuisine": "british",
    "level": "1",
    "name": "Bill's"
  }
},
{
  "type": "node",
  "id": 6749496895,
  "lat": 50.4136070,
  "lon": -4.1234249,
  "tags": {
    "amenity": "cafe",
    "name": "Dee Dee's Cafe",
    "outdoor_seating": "no"
  }
},
{
  "type": "node",
  "id": 6753932785,
  "lat": 50.3754823,
  "lon": -4.1942393,
  "tags": {
    "addr:street": "Tamar Street",
    "amenity": "restaurant",
    "name": "Pirates Galley"
  }
},
{
  "type": "node",
  "id": 6854318085,
  "lat": 50.3625122,
  "lon": -4.1633865,
  "tags": {
    "amenity": "restaurant",
    "brand": "Wildwood",
    "brand:wikidata": "Q85300869",
    "cuisine": "grill;pasta;pizza",
    "name": "Wildwood"
  }
},
{
  "type": "node",
  "id": 6988306354,
  "lat": 50.4163165,
  "lon": -4.1142456,
  "tags": {
    "amenity": "hospital",
    "emergency": "no",
    "healthcare": "hospital",
    "name": "Derriford Hospital"
  }
},
{
  "type": "node",
  "id": 6988331062,
  "lat": 50.4165883,
  "lon": -4.1143231,
  "tags": {
    "amenity": "cafe",
    "name": "Warren's Cafe"
  }
},
{
  "type": "node",
  "id": 6988331063,
  "lat": 50.4156825,
  "lon": -4.1139851,
  "tags": {
    "amenity": "cafe",
    "name": "Oncology Restaurant"
  }
},
{
  "type": "node",
  "id": 6988331064,
  "lat": 50.4159662,
  "lon": -4.1134755,
  "tags": {
    "amenity": "place_of_worship",
    "name": "Hospital Chapel"
  }
},
{
  "type": "node",
  "id": 7282383192,
  "lat": 50.4350806,
  "lon": -4.1019269,
  "tags": {
    "amenity": "social_facility",
    "capacity": "10",
    "opening_hours": "24/7",
    "social_facility": "shelter",
    "social_facility:for": "child"
  }
},
{
  "type": "node",
  "id": 7288499479,
  "lat": 50.4214728,
  "lon": -4.1098987,
  "tags": {
    "amenity": "bar",
    "name": "Student Union Bar and Cafe"
  }
},
{
  "type": "node",
  "id": 7514052644,
  "lat": 50.4097311,
  "lon": -4.0966588,
  "tags": {
    "amenity": "cafe",
    "brand": "Asda",
    "brand:wikidata": "Q297410",
    "brand:wikipedia": "en:Asda",
    "contact:phone": "+44 1752 709785",
    "contact:website": "https://storelocator.asda.com/south-west/plymouth/leypark-drive-estover/cafe",
    "cuisine": "coffee_shop",
    "drinking_water:refill": "yes",
    "drinking_water:refill:network": "Refill",
    "fixme": "Location not accurate",
    "internet_access": "wlan",
    "internet_access:fee": "no",
    "name": "Asda Café",
    "opening_hours:covid19": "Mo-Su off",
    "operator": "Asda Stores Ltd",
    "takeaway": "yes"
  }
},
{
  "type": "node",
  "id": 7696326144,
  "lat": 50.3686770,
  "lon": -4.1351214,
  "tags": {
    "amenity": "nightclub",
    "name": "Annabel's Cabaret & Discotheque"
  }
},
{
  "type": "node",
  "id": 7696326145,
  "lat": 50.3685350,
  "lon": -4.1348907,
  "tags": {
    "amenity": "restaurant",
    "cuisine": "pizza",
    "name": "The Stable"
  }
},
{
  "type": "node",
  "id": 7696326147,
  "lat": 50.3676411,
  "lon": -4.1352823,
  "tags": {
    "amenity": "bar",
    "name": "Rust & Royal",
    "outdoor_seating": "yes"
  }
},
{
  "type": "node",
  "id": 7696326148,
  "lat": 50.3676034,
  "lon": -4.1350651,
  "tags": {
    "amenity": "bar",
    "name": "Rakuda Kitchen and Cocktails",
    "outdoor_seating": "yes"
  }
},
{
  "type": "node",
  "id": 7696326149,
  "lat": 50.3664289,
  "lon": -4.1340888,
  "tags": {
    "amenity": "cafe",
    "name": "Alfresco",
    "takeaway": "only"
  }
},
{
  "type": "node",
  "id": 7696326150,
  "lat": 50.3665572,
  "lon": -4.1341692,
  "tags": {
    "amenity": "fast_food",
    "cuisine": "greek;mediterranean",
    "name": "The Greek",
    "takeaway": "only"
  }
},
{
  "type": "node",
  "id": 7752512986,
  "lat": 50.3721112,
  "lon": -4.1948114,
  "tags": {
    "amenity": "pub",
    "name": "Torpoint Mosquito Sailing Club"
  }
},
{
  "type": "node",
  "id": 7752520785,
  "lat": 50.3743457,
  "lon": -4.1938872,
  "tags": {
    "amenity": "cafe",
    "name": "Old Rowing Club"
  }
},
{
  "type": "node",
  "id": 7765481785,
  "lat": 50.3721381,
  "lon": -4.1948271,
  "tags": {
    "amenity": "bar",
    "name": "Torpoint Mosquito Sailing Club"
  }
},
{
  "type": "node",
  "id": 7791240385,
  "lat": 50.3742540,
  "lon": -4.1940579,
  "tags": {
    "amenity": "bar",
    "name": "The Old Rowing Club"
  }
},
{
  "type": "node",
  "id": 7821138791,
  "lat": 50.3719398,
  "lon": -4.1496335,
  "tags": {
    "addr:city": "Plymouth",
    "addr:country": "GB",
    "addr:housenumber": "142",
    "addr:postcode": "PL1 5JE",
    "addr:street": "King Street",
    "amenity": "restaurant",
    "contact:phone": "+44 1752 227787",
    "contact:website": "https://www.nawrozrestaurantplymouth.co.uk/",
    "fhrs:id": "85330",
    "name": "Nawroz Restaurant",
    "opening_hours": "Mo-Su 10:30-20:30"
  }
},
{
  "type": "node",
  "id": 8041624200,
  "lat": 50.3944117,
  "lon": -4.1472867,
  "tags": {
    "amenity": "fuel",
    "direction": "SE",
    "generator:method": "photovoltaic",
    "generator:output:electricity": "yes",
    "generator:solar:modules": "4",
    "generator:source": "solar",
    "generator:type": "solar_photovoltaic_panel",
    "location": "roof",
    "power": "generator"
  }
},
{
  "type": "node",
  "id": 8124337632,
  "lat": 50.3713157,
  "lon": -4.1388233,
  "tags": {
    "alt_name": "Kentucky Fried Chicken",
    "amenity": "fast_food",
    "brand": "KFC",
    "brand:wikidata": "Q524757",
    "brand:wikipedia": "en:KFC",
    "cuisine": "chicken",
    "drive_through": "no",
    "name": "KFC",
    "takeaway": "yes"
  }
},
{
  "type": "node",
  "id": 8124337639,
  "lat": 50.3724691,
  "lon": -4.1472111,
  "tags": {
    "amenity": "pub",
    "name": "The Eagle"
  }
},
{
  "type": "node",
  "id": 8128924666,
  "lat": 50.3638999,
  "lon": -4.1426015,
  "tags": {
    "amenity": "cafe"
  }
},
{
  "type": "node",
  "id": 8128924674,
  "lat": 50.3667084,
  "lon": -4.1416766,
  "tags": {
    "amenity": "cafe",
    "name": "Putters on the Hoe"
  }
},
{
  "type": "node",
  "id": 8129417138,
  "lat": 50.3705314,
  "lon": -4.1412525,
  "tags": {
    "amenity": "fast_food",
    "brand": "Greggs",
    "brand:wikidata": "Q3403981",
    "brand:wikipedia": "en:Greggs",
    "cuisine": "sandwich;bakery",
    "name": "Greggs",
    "takeaway": "yes"
  }
},
{
  "type": "node",
  "id": 8129417148,
  "lat": 50.3707863,
  "lon": -4.1384014,
  "tags": {
    "amenity": "restaurant",
    "name": "Turtle Bay"
  }
},
{
  "type": "node",
  "id": 8129417149,
  "lat": 50.3707418,
  "lon": -4.1373446,
  "tags": {
    "amenity": "restaurant",
    "brand": "Zizzi",
    "brand:wikidata": "Q8072944",
    "brand:wikipedia": "en:Zizzi",
    "cuisine": "italian",
    "name": "Zizzi"
  }
},
{
  "type": "node",
  "id": 8129417150,
  "lat": 50.3706443,
  "lon": -4.1369127,
  "tags": {
    "amenity": "fast_food",
    "brand": "Five Guys",
    "brand:wikidata": "Q1131810",
    "brand:wikipedia": "en:Five Guys",
    "contact:website": "https://restaurants.fiveguys.co.uk/south-west/unit-9",
    "cuisine": "burger",
    "name": "Five Guys",
    "official_name": "Five Guys Burgers and Fries",
    "takeaway": "yes"
  }
},
{
  "type": "node",
  "id": 8129417151,
  "lat": 50.3707145,
  "lon": -4.1367813,
  "tags": {
    "amenity": "restaurant",
    "brand": "Nando's",
    "brand:wikidata": "Q3472954",
    "brand:wikipedia": "en:Nando's",
    "cuisine": "chicken;portuguese",
    "name": "Nando's"
  }
},
{
  "type": "node",
  "id": 8129417164,
  "lat": 50.3699634,
  "lon": -4.1385194,
  "tags": {
    "amenity": "restaurant",
    "cuisine": "chinese",
    "name": "Buffet City"
  }
},
{
  "type": "node",
  "id": 8142496867,
  "lat": 50.3721570,
  "lon": -4.1390343,
  "tags": {
    "amenity": "restaurant",
    "brand": "YO! Sushi",
    "brand:wikidata": "Q3105441",
    "brand:wikipedia": "en:YO! Sushi",
    "cuisine": "sushi",
    "level": "1",
    "name": "YO! Sushi"
  }
},
{
  "type": "node",
  "id": 8146111657,
  "lat": 50.3711605,
  "lon": -4.1443732,
  "tags": {
    "amenity": "post_office",
    "brand": "Post Office",
    "brand:wikidata": "Q1783168",
    "brand:wikipedia": "en:Post Office Ltd",
    "name": "Post Office",
    "operator": "Post Office",
    "operator:wikidata": "Q1783168",
    "operator:wikipedia": "en:Post Office Ltd"
  }
},
{
  "type": "node",
  "id": 8146134107,
  "lat": 50.3752463,
  "lon": -4.1368091,
  "tags": {
    "amenity": "nightclub",
    "name": "Switch"
  }
},
{
  "type": "node",
  "id": 8146134111,
  "lat": 50.3829038,
  "lon": -4.1339007,
  "tags": {
    "amenity": "cafe",
    "brand": "Costa",
    "brand:wikidata": "Q608845",
    "brand:wikipedia": "en:Costa Coffee",
    "cuisine": "coffee_shop",
    "name": "Costa",
    "takeaway": "yes"
  }
},
{
  "type": "node",
  "id": 8146134115,
  "lat": 50.3712418,
  "lon": -4.1388281,
  "tags": {
    "amenity": "bank",
    "brand": "The Co-operative Bank",
    "brand:wikidata": "Q3520318",
    "brand:wikipedia": "en:The Co-operative Bank",
    "name": "The Co-operative Bank"
  }
},
{
  "type": "node",
  "id": 8146134116,
  "lat": 50.3708856,
  "lon": -4.1387278,
  "tags": {
    "amenity": "bank",
    "brand": "Skipton Building Society",
    "brand:wikidata": "Q16931747",
    "brand:wikipedia": "en:Skipton Building Society",
    "name": "Skipton Building Society"
  }
},
{
  "type": "node",
  "id": 8146152317,
  "lat": 50.3710156,
  "lon": -4.1387976,
  "tags": {
    "amenity": "bank",
    "brand": "RBS",
    "brand:wikidata": "Q160126",
    "brand:wikipedia": "en:Royal Bank of Scotland",
    "name": "RBS",
    "official_name": "Royal Bank of Scotland"
  }
},
{
  "type": "node",
  "id": 8146152320,
  "lat": 50.3723798,
  "lon": -4.1473356,
  "tags": {
    "amenity": "restaurant",
    "cuisine": "fish_and_chips"
  }
},
{
  "type": "node",
  "id": 8151096983,
  "lat": 50.4167391,
  "lon": -4.1133356,
  "tags": {
    "amenity": "hospital",
    "healthcare": "hospital",
    "name": "Emergency Department"
  }
},
{
  "type": "node",
  "id": 8151096998,
  "lat": 50.4167145,
  "lon": -4.1177937,
  "tags": {
    "amenity": "restaurant",
    "brand": "Pizza Hut",
    "brand:wikidata": "Q191615",
    "brand:wikipedia": "en:Pizza Hut",
    "cuisine": "pizza",
    "name": "Pizza Hut"
  }
},
{
  "type": "node",
  "id": 8151096999,
  "lat": 50.4166632,
  "lon": -4.1175845,
  "tags": {
    "amenity": "fast_food",
    "brand": "Subway",
    "brand:wikidata": "Q244457",
    "brand:wikipedia": "en:Subway (restaurant)",
    "cuisine": "sandwich",
    "name": "Subway",
    "takeaway": "yes"
  }
},
{
  "type": "node",
  "id": 8151097000,
  "lat": 50.4167862,
  "lon": -4.1180029,
  "tags": {
    "amenity": "cafe",
    "brand": "Costa",
    "brand:wikidata": "Q608845",
    "brand:wikipedia": "en:Costa Coffee",
    "cuisine": "coffee_shop",
    "name": "Costa",
    "takeaway": "yes"
  }
},
{
  "type": "node",
  "id": 8164083424,
  "lat": 50.3739019,
  "lon": -4.1790433,
  "tags": {
    "amenity": "post_office",
    "name": "Marlborough Street"
  }
},
{
  "type": "node",
  "id": 8176232667,
  "lat": 50.3669602,
  "lon": -4.1565913,
  "tags": {
    "amenity": "restaurant",
    "name": "The Dock"
  }
},
{
  "type": "node",
  "id": 8182462805,
  "lat": 50.3696583,
  "lon": -4.1466259,
  "tags": {
    "amenity": "casino",
    "name": "Grosvenor"
  }
},
{
  "type": "node",
  "id": 8182462806,
  "lat": 50.3700639,
  "lon": -4.1470761,
  "tags": {
    "amenity": "nightclub",
    "name": "Hallpass"
  }
},
{
  "type": "node",
  "id": 8182574935,
  "lat": 50.3723867,
  "lon": -4.1386524,
  "tags": {
    "amenity": "pharmacy",
    "brand": "Boots",
    "brand:wikidata": "Q6123139",
    "brand:wikipedia": "en:Boots UK",
    "dispensing": "yes",
    "healthcare": "pharmacy",
    "level": "0",
    "name": "Boots"
  }
},
{
  "type": "node",
  "id": 8182574955,
  "lat": 50.3720925,
  "lon": -4.1376305,
  "tags": {
    "amenity": "fast_food",
    "brand": "Burger King",
    "brand:wikidata": "Q177054",
    "brand:wikipedia": "en:Burger King",
    "cuisine": "burger",
    "level": "2",
    "name": "Burger King",
    "takeaway": "yes"
  }
},
{
  "type": "node",
  "id": 8182574956,
  "lat": 50.3722755,
  "lon": -4.1393203,
  "tags": {
    "amenity": "cafe",
    "name": "M&S Cafe Revive"
  }
},
{
  "type": "node",
  "id": 8243356933,
  "lat": 50.4186220,
  "lon": -4.1424936,
  "tags": {
    "amenity": "school",
    "name": "Woodlands Community Special School"
  }
},
{
  "type": "node",
  "id": 8267816932,
  "lat": 50.3776313,
  "lon": -4.1340812,
  "tags": {
    "addr:city": "Plymouth",
    "addr:housename": "20 Providence Street",
    "addr:postcode": "PL4 8JQ",
    "amenity": "pub",
    "brewery": "yes",
    "name": "Providence Inn",
    "opening_hours": "Mo-Th 17:00-22:00, Fr-Su 16:00-22:00",
    "smoking": "no",
    "website": "https://www.facebook.com/Providence-Inn-154702857892257/"
  }
},
{
  "type": "node",
  "id": 8268155737,
  "lat": 50.3766235,
  "lon": -4.1403496,
  "tags": {
    "amenity": "place_of_worship",
    "name": "University of Plymouth Multi-Faith chaplaincy",
    "religion": "multifaith"
  }
},
{
  "type": "node",
  "id": 8268168495,
  "lat": 50.3784108,
  "lon": -4.1406977,
  "tags": {
    "amenity": "fast_food",
    "cuisine": "chinese",
    "name": "New Dragon House"
  }
},
{
  "type": "node",
  "id": 8268238835,
  "lat": 50.3706966,
  "lon": -4.1373137,
  "tags": {
    "amenity": "pub",
    "brewery": "yes",
    "name": "Brewdog",
    "opening_hours": "Unopened Yet"
  }
},
{
  "type": "node",
  "id": 8270383817,
  "lat": 50.3768124,
  "lon": -4.1398290,
  "tags": {
    "amenity": "post_office",
    "name": "University Post Room",
    "operator": "University of Plymouth"
  }
},
{
  "type": "node",
  "id": 8335614083,
  "lat": 50.3898255,
  "lon": -4.1802715,
  "tags": {
    "amenity": "pharmacy",
    "brand": "Well Pharmacy",
    "brand:wikidata": "Q7726524",
    "brand:wikipedia": "en:Well Pharmacy",
    "dispensing": "yes",
    "healthcare": "pharmacy",
    "name": "Well Pharmacy"
  }
},
{
  "type": "node",
  "id": 8480041314,
  "lat": 50.3844738,
  "lon": -4.1346086,
  "tags": {
    "amenity": "dentist",
    "healthcare": "dentist",
    "name": "Spa Dental"
  }
},
{
  "type": "node",
  "id": 8499876330,
  "lat": 50.4112563,
  "lon": -4.1595879,
  "tags": {
    "amenity": "pharmacy",
    "brand": "Lloyds Pharmacy",
    "brand:wikidata": "Q6662870",
    "brand:wikipedia": "en:LloydsPharmacy",
    "dispensing": "yes",
    "healthcare": "pharmacy",
    "name": "Lloyds Pharmacy"
  }
},
{
  "type": "node",
  "id": 8499876331,
  "lat": 50.4112478,
  "lon": -4.1595048,
  "tags": {
    "amenity": "fast_food",
    "name": "Pearces Snacks"
  }
},
{
  "type": "node",
  "id": 8563113617,
  "lat": 50.3690620,
  "lon": -4.1239208,
  "tags": {
    "amenity": "community_centre",
    "name": "East End Community Centre"
  }
},
{
  "type": "node",
  "id": 8569651054,
  "lat": 50.3828374,
  "lon": -4.1338636,
  "tags": {
    "amenity": "fast_food",
    "name": "Sandwich bar"
  }
},
{
  "type": "node",
  "id": 8662509881,
  "lat": 50.3690946,
  "lon": -4.1530460,
  "tags": {
    "amenity": "cafe",
    "name": "Millbay Cafe"
  }
},
{
  "type": "node",
  "id": 8776003611,
  "lat": 50.4070592,
  "lon": -4.1897304,
  "tags": {
    "addr:city": "Plymouth",
    "addr:housename": "Cornwall Gates Sports Bar",
    "addr:housenumber": "74",
    "addr:postcode": "PL5 1SR",
    "addr:street": "Normandy Way",
    "amenity": "bar",
    "name": "Cornwall Gate Sports Bar"
  }
},
{
  "type": "node",
  "id": 8798138248,
  "lat": 50.3692745,
  "lon": -4.1465123,
  "tags": {
    "amenity": "restaurant",
    "brand": "PizzaExpress",
    "brand:wikidata": "Q662845",
    "brand:wikipedia": "en:PizzaExpress",
    "cuisine": "pizza",
    "name": "PizzaExpress"
  }
},
{
  "type": "node",
  "id": 8840388668,
  "lat": 50.3644402,
  "lon": -4.1480454,
  "tags": {
    "amenity": "cafe"
  }
},
{
  "type": "node",
  "id": 8842375045,
  "lat": 50.3724597,
  "lon": -4.1469151,
  "tags": {
    "amenity": "fast_food",
    "brand": "Subway",
    "brand:wikidata": "Q244457",
    "brand:wikipedia": "en:Subway (restaurant)",
    "cuisine": "sandwich",
    "name": "Subway",
    "takeaway": "yes"
  }
},
{
  "type": "node",
  "id": 8842375046,
  "lat": 50.3724609,
  "lon": -4.1470248,
  "tags": {
    "amenity": "restaurant",
    "cuisine": "greek;european",
    "name": "Zeus"
  }
},
{
  "type": "node",
  "id": 9012017866,
  "lat": 50.4268995,
  "lon": -4.1356224,
  "tags": {
    "amenity": "pharmacy",
    "brand": "Well Pharmacy",
    "brand:wikidata": "Q7726524",
    "brand:wikipedia": "en:Well Pharmacy",
    "dispensing": "yes",
    "healthcare": "pharmacy",
    "name": "Well Pharmacy"
  }
},
{
  "type": "node",
  "id": 9012017871,
  "lat": 50.4304941,
  "lon": -4.1314671,
  "tags": {
    "amenity": "fast_food",
    "name": "Southway Curry and Kebab"
  }
},
{
  "type": "node",
  "id": 9033396345,
  "lat": 50.3698827,
  "lon": -4.1591421,
  "tags": {
    "amenity": "post_office",
    "operator": "Post Office",
    "operator:wikidata": "Q1783168",
    "operator:wikipedia": "en:Post Office Ltd"
  }
},
{
  "type": "node",
  "id": 9033396350,
  "lat": 50.3681049,
  "lon": -4.1491700,
  "tags": {
    "amenity": "clinic",
    "healthcare": "clinic",
    "healthcare:speciality": "ultrasound",
    "name": "Milbay Clinic"
  }
},
{
  "type": "node",
  "id": 9033396351,
  "lat": 50.3681472,
  "lon": -4.1490353,
  "tags": {
    "amenity": "cafe",
    "name": "Rhubarb & Mustard"
  }
},
{
  "type": "node",
  "id": 9053045057,
  "lat": 50.4168201,
  "lon": -4.1149902,
  "tags": {
    "amenity": "pharmacy",
    "brand": "Lloyds Pharmacy",
    "brand:wikidata": "Q6662870",
    "brand:wikipedia": "en:LloydsPharmacy",
    "dispensing": "yes",
    "healthcare": "pharmacy",
    "name": "Lloyds Pharmacy"
  }
},
{
  "type": "node",
  "id": 9053045072,
  "lat": 50.4160293,
  "lon": -4.1232083,
  "tags": {
    "amenity": "social_facility",
    "name": "Home Care"
  }
},
{
  "type": "node",
  "id": 9166839217,
  "lat": 50.4096449,
  "lon": -4.1496610,
  "tags": {
    "amenity": "pharmacy",
    "brand": "Well Pharmacy",
    "brand:wikidata": "Q7726524",
    "brand:wikipedia": "en:Well Pharmacy",
    "dispensing": "yes",
    "healthcare": "pharmacy",
    "name": "Well Pharmacy"
  }
},
{
  "type": "node",
  "id": 9166839218,
  "lat": 50.4096059,
  "lon": -4.1497776,
  "tags": {
    "amenity": "cafe",
    "name": "Denzil's Pasties"
  }
},
{
  "type": "node",
  "id": 9166839243,
  "lat": 50.4101450,
  "lon": -4.1512894,
  "tags": {
    "amenity": "car_wash",
    "automated": "no",
    "self_service": "only"
  }
},
{
  "type": "node",
  "id": 9221174254,
  "lat": 50.3788893,
  "lon": -4.1121959,
  "tags": {
    "amenity": "doctors",
    "healthcare": "doctor",
    "name": "Mount Gould Primary Care Centre"
  }
},
{
  "type": "node",
  "id": 9221174257,
  "lat": 50.3789133,
  "lon": -4.1126425,
  "tags": {
    "amenity": "hospital",
    "healthcare": "hospital",
    "name": "Mount Gould Local Care Centre"
  }
},
{
  "type": "node",
  "id": 9221174258,
  "lat": 50.3783767,
  "lon": -4.1128814,
  "tags": {
    "amenity": "hospital",
    "healthcare": "hospital",
    "name": "Kingfisher and Skylark Wards"
  }
},
{
  "type": "node",
  "id": 9221174259,
  "lat": 50.3786804,
  "lon": -4.1124132,
  "tags": {
    "amenity": "hospital",
    "healthcare": "hospital",
    "name": "Outpatients"
  }
},
{
  "type": "node",
  "id": 9247222295,
  "lat": 50.3686483,
  "lon": -4.1419921,
  "tags": {
    "amenity": "bar",
    "name": "Slug and Lettuce"
  }
},
{
  "type": "node",
  "id": 9247222296,
  "lat": 50.3687825,
  "lon": -4.1416960,
  "tags": {
    "amenity": "restaurant",
    "name": "Kuku"
  }
},
{
  "type": "node",
  "id": 9247222297,
  "lat": 50.3685470,
  "lon": -4.1419406,
  "tags": {
    "amenity": "bar",
    "name": "Roux"
  }
},
{
  "type": "node",
  "id": 9496760627,
  "lat": 50.4297354,
  "lon": -4.1258979,
  "tags": {
    "amenity": "fast_food",
    "cuisine": "fish_and_chips",
    "name": "Southway Fish and Chips"
  }
},
{
  "type": "node",
  "id": 9496760628,
  "lat": 50.4296690,
  "lon": -4.1261721,
  "tags": {
    "amenity": "fast_food",
    "cuisine": "pasty",
    "name": "Ivor Dewney"
  }
},
{
  "type": "node",
  "id": 9496760633,
  "lat": 50.4293635,
  "lon": -4.1260865,
  "tags": {
    "amenity": "fast_food",
    "name": "Southway Charcoal Grill"
  }
},
{
  "type": "node",
  "id": 9496760634,
  "lat": 50.4296858,
  "lon": -4.1261061,
  "tags": {
    "amenity": "fast_food",
    "cuisine": "indian",
    "name": "Indian Kitchen"
  }
},
{
  "type": "node",
  "id": 9496760636,
  "lat": 50.4297515,
  "lon": -4.1258336,
  "tags": {
    "amenity": "fast_food",
    "name": "Southway Chinese Takeaway"
  }
},
{
  "type": "node",
  "id": 9496760637,
  "lat": 50.4295991,
  "lon": -4.1262102,
  "tags": {
    "amenity": "fast_food",
    "cuisine": "pizza",
    "name": "Southway Pizza"
  }
},
{
  "type": "node",
  "id": 9496760638,
  "lat": 50.4295533,
  "lon": -4.1261866,
  "tags": {
    "amenity": "pharmacy",
    "brand": "Well Pharmacy",
    "brand:wikidata": "Q7726524",
    "brand:wikipedia": "en:Well Pharmacy",
    "dispensing": "yes",
    "healthcare": "pharmacy",
    "name": "Well Pharmacy"
  }
},
{
  "type": "node",
  "id": 9572865325,
  "lat": 50.4094322,
  "lon": -4.0964437,
  "tags": {
    "amenity": "post_office",
    "brand": "Post Office",
    "brand:wikidata": "Q1783168",
    "brand:wikipedia": "en:Post Office Ltd",
    "level": "-1"
  }
},
{
  "type": "node",
  "id": 9572865327,
  "lat": 50.4095223,
  "lon": -4.0960402,
  "tags": {
    "amenity": "pharmacy",
    "dispensing": "yes",
    "healthcare": "pharmacy",
    "level": "-1",
    "name": "Speedwell Pharmacy"
  }
},
{
  "type": "node",
  "id": 9572865328,
  "lat": 50.4094974,
  "lon": -4.0962920,
  "tags": {
    "amenity": "fast_food",
    "cuisine": "fish_and_chips",
    "level": "-1",
    "name": "Jaws"
  }
},
{
  "type": "way",
  "id": 32500286,
  "nodes": [
    1930505847,
    1930505850,
    1930505851,
    1930505852,
    365390796,
    365390797,
    365390798,
    9221165264,
    9221165273,
    9221165274,
    9221165275,
    1930505885,
    365390799,
    365390800,
    365390801,
    365390802,
    1930505892,
    365390803,
    1930505888,
    365390804,
    365390805,
    365390806,
    365390807,
    9328655314,
    9328655315,
    501834935,
    365390808,
    9328655313,
    8671208158,
    8671208157,
    365390810,
    365390811,
    8671208156,
    365390812,
    8553342720,
    365390813,
    365390814,
    365390816,
    1930505797,
    1930505832,
    1930505847
  ],
  "tags": {
    "addr:city": "Plymouth",
    "addr:postcode": "PL4 7QD",
    "addr:street": "Mount Gould Road",
    "amenity": "hospital",
    "emergency": "no",
    "healthcare": "hospital",
    "name": "Mount Gould Hospital"
  }
},
{
  "type": "way",
  "id": 32570156,
  "nodes": [
    366345307,
    366345308,
    366345309,
    4851819100,
    366345310,
    366345311,
    366345312,
    366345313,
    366345314,
    366345315,
    4221193427,
    4221193426,
    366345316,
    2640779683,
    366345307
  ],
  "tags": {
    "addr:city": "Plymouth",
    "addr:country": "GB",
    "addr:place": "Lipson",
    "addr:postcode": "PL4 7HW",
    "addr:street": "Bernice Terrace",
    "amenity": "school",
    "capacity": "420",
    "isced:level": "1",
    "max_age": "11",
    "min_age": "5",
    "name": "Lipson Vale Primary School",
    "phone": "+44 1752 224801",
    "ref:GB:uprn": "100041165395",
    "ref:edubase": "113298",
    "religion": "none",
    "school:boarding": "no",
    "school:gender": "mixed",
    "school:selective": "no",
    "school:trust": "no",
    "school:type": "community",
    "website": "https://www.lvps.co.uk/",
    "wikidata": "Q66161974"
  }
},
{
  "type": "way",
  "id": 33388326,
  "nodes": [
    379783968,
    379783970,
    379783971,
    379783973,
    379783976,
    379783980,
    6776720836,
    4208740914,
    379783983,
    379783985,
    2910169490,
    2910169499,
    8154638103,
    2910169492,
    376046310,
    376046315,
    2910169494,
    8154638025,
    2910169498,
    8270403786,
    8270403785,
    379783993,
    379783994,
    379783996,
    379783997,
    379783999,
    6774763436,
    379784000,
    6774763435,
    6774763478,
    379784002,
    379784004,
    4208740968,
    379784005,
    379783968
  ],
  "tags": {
    "addr:city": "Plymouth",
    "addr:country": "GB",
    "addr:housename": "Plymouth College",
    "addr:postcode": "PL4 6RN",
    "addr:street": "Ford Park",
    "amenity": "college",
    "capacity": "1173",
    "isced:level": "0;1;2;3",
    "max_age": "19",
    "min_age": "2",
    "name": "Plymouth College",
    "phone": "+44 1752 505100",
    "ref:GB:uprn": "100041062517",
    "ref:edubase": "113609",
    "religion": "none",
    "school:boarding": "yes",
    "school:gender": "mixed",
    "school:selective": "no",
    "school:trust": "no",
    "school:type": "independent",
    "website": "https://www.plymouthcollege.com/",
    "wikidata": "Q2099847"
  }
},
{
  "type": "way",
  "id": 33388464,
  "nodes": [
    379784860,
    379784863,
    4208740985,
    4208740984,
    4208740982,
    4208740975,
    379784868,
    379784871,
    379784873,
    379784876,
    379784860
  ],
  "tags": {
    "addr:city": "Plymouth",
    "addr:country": "GB",
    "addr:place": "Mutley",
    "addr:postcode": "PL3 4RH",
    "addr:street": "Hyde Park Road",
    "amenity": "school",
    "capacity": "360",
    "isced:level": "1",
    "max_age": "11",
    "min_age": "7",
    "name": "Hyde Park Junior School",
    "phone": "+44 1752 225314",
    "ref:GB:uprn": "10012061376",
    "ref:edubase": "146710",
    "ref:edubase:group": "16369",
    "religion": "none",
    "school:boarding": "no",
    "school:gender": "mixed",
    "school:selective": "no",
    "school:trust": "yes",
    "school:trust:name": "Horizon Multi Academy Trust",
    "school:trust:type": "multi_academy",
    "school:type": "academy",
    "website": "http://www.hydeparkjuniorschool.co.uk/website",
    "wikidata": "Q5953707"
  }
},
{
  "type": "way",
  "id": 34697694,
  "nodes": [
    403864051,
    8560182504,
    403864054,
    4189255989,
    403864057,
    403864059,
    403864062,
    403864064,
    403864065,
    403864067,
    403864068,
    403864070,
    4189253567,
    403864072,
    403864073,
    403864075,
    403864076,
    403864051
  ],
  "tags": {
    "addr:city": "Plymouth",
    "addr:country": "GB",
    "addr:place": "Greenbank",
    "addr:postcode": "PL4 8NZ",
    "addr:street": "Mount Street",
    "amenity": "school",
    "capacity": "210",
    "isced:level": "0;1",
    "max_age": "11",
    "min_age": "2",
    "name": "Mount Street Primary School",
    "operator": "The Lipson Learning Co-operative Trust",
    "phone": "+44 1752 205091",
    "ref:GB:uprn": "100041063448",
    "ref:edubase": "146097",
    "ref:edubase:group": "16439",
    "religion": "none",
    "school:boarding": "no",
    "school:gender": "mixed",
    "school:selective": "no",
    "school:trust": "yes",
    "school:trust:name": "Learning Academies Trust",
    "school:trust:type": "multi_academy",
    "school:type": "academy",
    "wikidata": "Q66169108"
  }
},
{
  "type": "way",
  "id": 34854866,
  "nodes": [
    408478520,
    408478523,
    1348753443,
    1348753373,
    408478524,
    8033228653,
    8033228652,
    1348753269,
    408478527,
    408478520
  ],
  "tags": {
    "amenity": "pub",
    "building": "yes",
    "name": "The Noah's Ark"
  }
},
{
  "type": "way",
  "id": 34856102,
  "nodes": [
    408489017,
    2499573012,
    2499573013,
    408489018,
    408489019,
    408489020,
    408489021,
    408489022,
    2499573011,
    408489023,
    408489025,
    8124149572,
    8124149571,
    2499573010,
    408489026,
    408489027,
    408489028,
    8124149583,
    408489029,
    408489017
  ],
  "tags": {
    "amenity": "place_of_worship",
    "building": "yes",
    "denomination": "methodist",
    "name": "Methodist Central Hall",
    "religion": "christian"
  }
},
{
  "type": "way",
  "id": 35302927,
  "nodes": [
    413707826,
    413707825,
    1349535915,
    1349535093,
    413707824,
    413707823,
    1349535112,
    1349535257,
    413707822,
    1349535082,
    413707821,
    413707820,
    413707819,
    413707818,
    413707817,
    413707511,
    413707510,
    1349535157,
    1349535171,
    413707509,
    413707508,
    413708214,
    413708215,
    413708216,
    413707826
  ],
  "tags": {
    "amenity": "courthouse",
    "building": "yes",
    "name": "Crown Court"
  }
},
{
  "type": "way",
  "id": 35302942,
  "nodes": [
    413708884,
    413708887,
    413708890,
    413708892,
    413708895,
    413708898,
    413708900,
    413708903,
    413708884
  ],
  "tags": {
    "amenity": "courthouse",
    "building": "yes",
    "name": "Magistrates Court"
  }
},
{
  "type": "way",
  "id": 39869128,
  "nodes": [
    478220408,
    478220410,
    4189157552,
    4189157555,
    478220411,
    478220413,
    4189157587,
    4189157564,
    478220408
  ],
  "tags": {
    "addr:city": "Plymouth",
    "addr:country": "GB",
    "addr:place": "Stoke",
    "addr:postcode": "PL1 5LL",
    "addr:street": "Palmerston Road",
    "amenity": "school",
    "capacity": "205",
    "isced:level": "0;1",
    "max_age": "11",
    "min_age": "3",
    "name": "Stuart Road Primary School",
    "operator": "Education Through Enterprise Trust",
    "phone": "+44 1752 567668",
    "ref:GB:uprn": "100041063888",
    "ref:edubase": "144844",
    "ref:edubase:group": "16503",
    "religion": "none",
    "school:boarding": "no",
    "school:gender": "mixed",
    "school:selective": "no",
    "school:trust": "yes",
    "school:trust:name": "Reach South Academy Trust",
    "school:trust:type": "multi_academy",
    "school:type": "academy",
    "website": "http://www.stuartroad.org",
    "wikidata": "Q66168557"
  }
},
{
  "type": "way",
  "id": 40266024,
  "nodes": [
    485595403,
    1936442588,
    1936442586,
    1936442559,
    1936442562,
    485595404,
    1936442570,
    1936442573,
    1936442583,
    1936442587,
    1936442581,
    1936442584,
    1936442580,
    485595405,
    1936442592,
    1936442591,
    1936442616,
    1936442619,
    1936442625,
    1936442627,
    485595406,
    485595403
  ],
  "tags": {
    "amenity": "childcare",
    "building": "yes",
    "name": "Happy Days"
  }
},
{
  "type": "way",
  "id": 40266262,
  "nodes": [
    485597058,
    1935439519,
    1935439520,
    485597060,
    1926139027,
    1935439517,
    1935439515,
    1935439516,
    1935439498,
    1935439496,
    1926138815,
    1926138460,
    485597061,
    1935439491,
    1935439486,
    1935439487,
    1935439490,
    1935439488,
    1935439492,
    485597062,
    1926139050,
    1926138434,
    1926138990,
    485597063,
    1926138898,
    1926138935,
    1926138534,
    485597064,
    485597058
  ],
  "tags": {
    "addr:city": "Plymouth",
    "addr:housenumber": "20",
    "addr:postcode": "PL6 5XP",
    "addr:street": "Brest Road",
    "amenity": "hospital",
    "building": "yes",
    "emergency": "no",
    "name": "Peninsula NHS Treatment Centre",
    "phone": "+44 1752 506 070",
    "website": "http://www.peninsulatreatmentcentre.nhs.uk/",
    "wheelchair": "yes"
  }
},
{
  "type": "way",
  "id": 40266294,
  "nodes": [
    485597189,
    4214519258,
    485597191,
    485597192,
    485597193,
    1935439419,
    1935439426,
    1935439423,
    1935439416,
    485597189
  ],
  "tags": {
    "addr:city": "Plymouth",
    "addr:country": "GB",
    "addr:county": "Devon",
    "addr:housename": "Forder House",
    "addr:housenumber": "20",
    "addr:postcode": "PL6 5WR",
    "addr:street": "William Prance Road",
    "addr:village": "Derriford",
    "amenity": "bank",
    "atm": "yes",
    "brand": "HSBC UK",
    "brand:wikidata": "Q64767453",
    "building": "yes",
    "contact:website": "https://www.hsbc.co.uk/branch-list/plymouth-commercial-centre/",
    "name": "HSBC UK",
    "note": "Not quite sure how to mark up \"Derriford\" in an address, is it a village within Plymouth, or next to Plymouth, or a district of Plymouth? Have marked it as \"addr:viillage\" for now, so at least there is a reference to \"Derriford\".",
    "opening_hours": "Tu-Fr 09:30-15:30",
    "operator": "HSBC"
  }
},
{
  "type": "way",
  "id": 40609401,
  "nodes": [
    493171756,
    493171757,
    3992266296,
    3992266297,
    493171758,
    493171759,
    493171756
  ],
  "tags": {
    "addr:city": "Plymouth",
    "addr:postcode": "PL5 3AN",
    "addr:street": "Crownhill Road",
    "amenity": "fire_station",
    "building": "yes",
    "name": "Crownhill Fire Station",
    "operator": "Devon and Somerset Fire and Rescue Service"
  }
},
{
  "type": "way",
  "id": 40809708,
  "nodes": [
    496174182,
    496174195,
    496174210,
    496174224,
    496174238,
    496174284,
    496174182
  ],
  "tags": {
    "amenity": "doctors",
    "building": "yes",
    "healthcare": "doctor",
    "name": "Chad Road Surgery"
  }
},
{
  "type": "way",
  "id": 40812984,
  "nodes": [
    496229172,
    2524687703,
    2524687705,
    2524687708,
    2524687702,
    2524687707,
    2524687701,
    2524687709,
    2524687704,
    2524687706,
    496229173,
    496229175,
    496229180,
    496229172
  ],
  "tags": {
    "amenity": "place_of_worship",
    "building": "church",
    "dedication": "anglican",
    "name": "St Nicholas",
    "religion": "christian"
  }
},
{
  "type": "way",
  "id": 40861816,
  "nodes": [
    497209742,
    1933394777,
    1933394779,
    1933394775,
    497209744,
    1933394763,
    1933394765,
    1933394733,
    1933394732,
    1933394728,
    1933394723,
    497209751,
    497209753,
    497209755,
    1933394694,
    1933394708,
    1933394721,
    497209742
  ],
  "tags": {
    "amenity": "social_facility",
    "building": "yes",
    "name": "Stonehouse Creek Social Club"
  }
},
{
  "type": "way",
  "id": 41113280,
  "nodes": [
    501612292,
    1349535227,
    1349535810,
    501612295,
    1349535207,
    1349535534,
    1349535734,
    1349535066,
    501612297,
    1349535302,
    1349535254,
    1349535424,
    501612299,
    1349535431,
    1349535686,
    1349535566,
    501612307,
    1349535493,
    1349535137,
    1349535170,
    501612309,
    1349535506,
    2486324607,
    1349535567,
    501612312,
    1349535487,
    1349535888,
    1349535643,
    501612314,
    1349535681,
    1349535364,
    1349535764,
    1349535130,
    1349535724,
    501612318,
    1349535255,
    1349535890,
    1349535881,
    501612321,
    1349535203,
    1349535712,
    501612324,
    1349535863,
    1349535704,
    1349535697,
    1349535791,
    1349535361,
    1349535827,
    1349535223,
    501612326,
    1349535067,
    1349535924,
    1349535874,
    1349535930,
    1349535752,
    501612328,
    1349535038,
    501612336,
    1349535083,
    501612339,
    501612342,
    501612345,
    1349535373,
    1349535162,
    1349535213,
    501612347,
    1349535442,
    1349535905,
    1349535795,
    1349535033,
    1349535331,
    501612351,
    1349535803,
    1349535460,
    1349535744,
    1349535463,
    1349535390,
    1349535078,
    501612354,
    1349535849,
    1349535831,
    501612357,
    501612360,
    1349535812,
    1349535761,
    501612362,
    1349535951,
    501612368,
    1349535314,
    1349535788,
    1349535571,
    1349535061,
    1349535714,
    501612292
  ],
  "tags": {
    "amenity": "events_venue",
    "building": "yes",
    "name": "Plymouth Pavilions",
    "wikidata": "Q7205841"
  }
},
{
  "type": "way",
  "id": 41123806,
  "nodes": [
    2784904020,
    8004023287,
    2784903959,
    2784903996,
    501838928,
    2784903933,
    501838929,
    501838930,
    501838931,
    501838933,
    2784903944,
    2784903962,
    2784903967,
    8732423345,
    8732423346,
    2784904009,
    2784903974,
    2784903972,
    2784885786,
    2784904023,
    2784903987,
    501837990,
    8732423324,
    7291672173,
    8732341890,
    7291672176,
    2784904020
  ],
  "tags": {
    "addr:city": "Plymouth",
    "addr:country": "GB",
    "addr:postcode": "PL5 3NE",
    "addr:street": "Pennycross",
    "amenity": "school",
    "capacity": "1150",
    "denomination": "anglican",
    "diocese": "Diocese of Exeter",
    "isced:level": "2",
    "landuse": "recreation_ground",
    "max_age": "16",
    "min_age": "11",
    "name": "All Saints Church of England Academy",
    "phone": "+44 1752 705131",
    "ref:GB:uprn": "10091827863",
    "ref:edubase": "136142",
    "ref:edubase:group": "4909",
    "religion": "christian",
    "school:boarding": "no",
    "school:gender": "mixed",
    "school:selective": "no",
    "school:trust": "yes",
    "school:trust:name": "The Ted Wragg Multi Academy Trust",
    "school:trust:type": "multi_academy",
    "school:type": "academy",
    "website": "http://www.asap.org.uk/",
    "wikidata": "Q4729554"
  }
},
{
  "type": "way",
  "id": 41190302,
  "nodes": [
    503195795,
    503195796,
    4155272549,
    4155272547,
    4155272545,
    4155272543,
    4155272538,
    4155272542,
    4155272539,
    4155272540,
    503195797,
    503195798,
    503195795
  ],
  "tags": {
    "alt_name": "Royal Mail Sorting Office",
    "amenity": "post_depot",
    "building": "yes",
    "name": "Pymouth Mail Centre",
    "operator": "Royal Mail"
  }
},
{
  "type": "way",
  "id": 42352264,
  "nodes": [
    528747350,
    528747353,
    528747355,
    528747356,
    528747350
  ],
  "tags": {
    "amenity": "pub",
    "building": "yes",
    "name": "The Phoenix",
    "wikidata": "Q80476691"
  }
},
{
  "type": "way",
  "id": 42360279,
  "nodes": [
    528858063,
    528858064,
    1422537925,
    528858065,
    528858066,
    528858063
  ],
  "tags": {
    "amenity": "university",
    "building": "yes",
    "name": "Reynolds"
  }
},
{
  "type": "way",
  "id": 42360285,
  "nodes": [
    528858078,
    528858099,
    8550157907,
    8550157911,
    8550157909,
    8550157904,
    8550157908,
    8550157910,
    8550157906,
    8550157905,
    528858102,
    4420519224,
    4420519225,
    8550157915,
    8550157916,
    8550177217,
    8550157914,
    4420519222,
    4881579979,
    528858078
  ],
  "tags": {
    "amenity": "library",
    "building": "yes",
    "name": "Charles Seale-Hayne Library",
    "opening_hours": "24/7",
    "operator": "University of Plymouth",
    "operator:type": "university",
    "wheelchair": "yes"
  }
},
{
  "type": "way",
  "id": 42365163,
  "nodes": [
    528896345,
    528896341,
    1349535297,
    1349535747,
    1349535050,
    1349535113,
    6805137899,
    6805137900,
    6805137901,
    6805137902,
    6805137898,
    1349535396,
    1349535080,
    1349535966,
    1349535407,
    1349535983,
    1349535346,
    1349535332,
    6805137897,
    1349535020,
    1349535202,
    1349535707,
    1349535683,
    1349535653,
    1349535165,
    1349535385,
    1349535316,
    528896342,
    6805137896,
    6805137895,
    6805137894,
    6805137893,
    6805137892,
    6805137891,
    6805137890,
    6805137889,
    528896344,
    1349535984,
    1349535173,
    1349535114,
    1349535121,
    1349535133,
    1349535169,
    1349535141,
    1349535244,
    1349535717,
    1349535200,
    1349535866,
    1349535184,
    528896345
  ],
  "tags": {
    "amenity": "public_building",
    "building": "yes",
    "name": "Guildhall"
  }
},
{
  "type": "way",
  "id": 42365803,
  "nodes": [
    528903648,
    528903652,
    6843869335,
    6843869336,
    6843869337,
    6843869338,
    528903649,
    6843869334,
    6843869339,
    528903650,
    528903648
  ],
  "tags": {
    "addr:postcode": "PL4 0AH",
    "addr:street": "Exeter Street",
    "alt_name": "Asda Plymouth Exeter Street Petrol",
    "amenity": "fuel",
    "brand": "Asda",
    "brand:wikidata": "Q297410",
    "brand:wikipedia": "en:Asda",
    "contact:phone": "+44 1752 876849",
    "contact:website": "https://storelocator.asda.com/south-west/plymouth/77-79-exeter-street",
    "name": "Asda",
    "opening_hours": "24/7",
    "operator": "Asda Stores Ltd",
    "ref:asda": "676"
  }
},
{
  "type": "way",
  "id": 42369221,
  "nodes": [
    528934304,
    8531533941,
    8531533948,
    8531533947,
    8531533942,
    528934306,
    528934307,
    528934298,
    528934309,
    528934304
  ],
  "tags": {
    "amenity": "pub",
    "name": "The Nowhere Inn",
    "wikidata": "Q79838247"
  }
},
{
  "type": "way",
  "id": 42369223,
  "nodes": [
    528934331,
    8531533901,
    528934328,
    528934365,
    8531533904,
    8531533899,
    528934338,
    528934331
  ],
  "tags": {
    "amenity": "pub",
    "building": "yes",
    "name": "The Classrooms"
  }
},
{
  "type": "way",
  "id": 50004614,
  "nodes": [
    635132938,
    635132942,
    1928054439,
    1928054444,
    1928054449,
    3964497520,
    635132944,
    635132947,
    635132949,
    635132951,
    635132953,
    635132938
  ],
  "tags": {
    "addr:postcode": "PL2 2EL",
    "amenity": "school",
    "capacity": "390",
    "isced:level": "0;1",
    "max_age": "11",
    "min_age": "3",
    "name": "Weston Mill Community Primary Academy",
    "old_name": "Weston Mill Community Primary School",
    "phone": "+44 1752 365250",
    "ref:GB:uprn": "100041065205",
    "ref:edubase": "143310",
    "ref:edubase:group": "16312",
    "religion": "none",
    "school:boarding": "no",
    "school:gender": "mixed",
    "school:selective": "no",
    "school:trust": "yes",
    "school:trust:name": "Discovery Multi Academy Trust",
    "school:trust:type": "multi_academy",
    "school:type": "academy",
    "source:addr:postcode": "get-information-schools.service.gov.uk",
    "website": "https://www.westonmill.plymouth.sch.uk/web"
  }
},
{
  "type": "way",
  "id": 54605552,
  "nodes": [
    687389134,
    687389135,
    687389139,
    687389146,
    687389134
  ],
  "tags": {
    "amenity": "library",
    "name": "Torpoint Library",
    "wheelchair": "yes",
    "wikidata": "Q54879093"
  }
},
{
  "type": "way",
  "id": 54615641,
  "nodes": [
    496174367,
    496174370,
    4134336628,
    4134336629,
    4134336630,
    687527102,
    4985141221,
    496174361,
    4134336639,
    496174363,
    687527094,
    496174560,
    4175790392,
    687527095,
    687527106,
    687527093,
    4175790049,
    687527107,
    496174397,
    496174385,
    496174387,
    496174469,
    496174389,
    496174392,
    1937825752,
    1937825897,
    1937825966,
    496174365,
    496174367
  ],
  "tags": {
    "addr:city": "Plymouth",
    "addr:country": "GB",
    "addr:place": "St Budeaux",
    "addr:postcode": "PL5 2AF",
    "addr:street": "Trevithick Road",
    "amenity": "school",
    "isced:level": "2;3",
    "max_age": "18",
    "min_age": "11",
    "name": "Marine Academy Plymouth",
    "operator": "Marine Academy Plymouth",
    "ref:GB:uprn": "100041167035",
    "ref:edubase": "147967",
    "ref:edubase:group": "4909",
    "religion": "none",
    "school:boarding": "no",
    "school:gender": "mixed",
    "school:trust": "yes",
    "school:trust:name": "The Ted Wragg Multi Academy Trust",
    "school:trust:type": "multi_academy",
    "school:type": "academy",
    "wikidata": "Q17016041"
  }
},
{
  "type": "way",
  "id": 54699441,
  "nodes": [
    688758973,
    1926994819,
    688758981,
    688758983,
    688758991,
    8314563240,
    8314563241,
    8314563242,
    8314563243,
    688758994,
    688758999,
    688759003,
    688759007,
    688759011,
    688759015,
    8850052346,
    213017359,
    6041484031,
    688758955,
    7175306641,
    688758951,
    8850052347,
    688758947,
    688758943,
    1926994710,
    9237982671,
    9237982673,
    4952242419,
    4952242418,
    1926994927,
    8367337810,
    9100220284,
    8367337809,
    8367337808,
    8367337807,
    8367337806,
    8367337805,
    8367337803,
    8367337802,
    8367337801,
    8367337800,
    8367337799,
    1926994990,
    688759018,
    1926994736,
    1926994765,
    688758973
  ],
  "tags": {
    "addr:city": "Plymouth",
    "addr:postcode": "PL6 8DH",
    "addr:street": "Derriford Road",
    "amenity": "hospital",
    "emergency": "yes",
    "healthcare": "hospital",
    "name": "Derriford Hospital",
    "phone": "+44 1752 202082",
    "website": "http://www.plymouthhospitals.nhs.uk",
    "wheelchair": "yes",
    "wikidata": "Q5263135"
  }
},
{
  "type": "way",
  "id": 54699459,
  "nodes": [
    688761236,
    688761237,
    688761239,
    1936442698,
    688761242,
    688761244,
    1936442554,
    1936442550,
    688761246,
    1936442548,
    688761248,
    688761250,
    688761252,
    688761236
  ],
  "tags": {
    "amenity": "hospital",
    "name": "Nuffield Clinic"
  }
},
{
  "type": "way",
  "id": 54800800,
  "nodes": [
    689958377,
    689958378,
    689958379,
    689958383,
    689958386,
    1937825521,
    689958388,
    689958391,
    4175789751,
    4175789746,
    4175789736,
    4175789735,
    689958393,
    1937825527,
    1937825529,
    1937825537,
    1937825541,
    1937825547,
    689958377
  ],
  "tags": {
    "addr:city": "Plymouth",
    "addr:country": "GB",
    "addr:place": "St Budeaux",
    "addr:postcode": "PL5 1RH",
    "addr:street": "Trelawney Avenue",
    "amenity": "school",
    "capacity": "210",
    "isced:level": "1",
    "max_age": "11",
    "min_age": "4",
    "name": "Victoria Road Primary School",
    "phone": "+44 1752 365411",
    "ref:GB:uprn": "100041166887",
    "ref:edubase": "145654",
    "ref:edubase:group": "16369",
    "religion": "none",
    "school:boarding": "no",
    "school:gender": "mixed",
    "school:selective": "no",
    "school:trust": "yes",
    "school:trust:name": "Horizon Multi Academy Trust",
    "school:trust:type": "multi_academy",
    "school:type": "academy",
    "website": "https://www.vrpsp.co.uk/",
    "wikidata": "Q67082897"
  }
},
{
  "type": "way",
  "id": 60855018,
  "nodes": [
    761823479,
    761823480,
    761823481,
    761823482,
    761823479
  ],
  "tags": {
    "amenity": "place_of_worship",
    "building": "school",
    "building:levels": "2",
    "name": "Plymouth Christian Centre",
    "religion": "christian",
    "roof:levels": "0"
  }
},
{
  "type": "way",
  "id": 97086432,
  "nodes": [
    1124799017,
    1124799018,
    1124799020,
    9247222314,
    1124799022,
    1124799023,
    2487905841,
    2487905842,
    2487905844,
    2487905847,
    2487905846,
    2487905845,
    1124799024,
    2487905848,
    9033396348,
    9033396347,
    9033396346,
    1124799017
  ],
  "tags": {
    "amenity": "theatre",
    "building": "yes",
    "name": "Theatre Royal & The Drum",
    "phone": "+44 1752 267222",
    "website": "https://www.theatreroyal.com/",
    "wikidata": "Q7777439",
    "wikipedia": "en:Theatre Royal, Plymouth"
  }
},
{
  "type": "way",
  "id": 98510946,
  "nodes": [
    1139665366,
    6830597265,
    6830597268,
    6830597267,
    6830597266,
    1139665367,
    6830597239,
    6830597241,
    6830597242,
    6830597244,
    6830597246,
    6830597245,
    6830597243,
    6830597240,
    1139665368,
    6830597247,
    6830597248,
    6830597250,
    6830597249,
    1139665369,
    6830597253,
    6830597252,
    6830597251,
    6830597255,
    6830597257,
    6830597258,
    6830597259,
    6830597256,
    6830597260,
    6830597263,
    6830597262,
    6830597264,
    6830597261,
    6830597254,
    1139665366
  ],
  "tags": {
    "amenity": "university",
    "building": "yes",
    "name": "Cookworthy Building",
    "wheelchair": "yes"
  }
},
{
  "type": "way",
  "id": 118522020,
  "nodes": [
    1332828177,
    1332828207,
    1332828163,
    1332828170,
    1332828177
  ],
  "tags": {
    "amenity": "cafe",
    "building": "yes",
    "source": "Bing"
  }
},
{
  "type": "way",
  "id": 127955661,
  "nodes": [
    687395021,
    687395068,
    687395070,
    687395075,
    687395078,
    687395082,
    687395087,
    6892974905,
    6892974904,
    6892974903,
    6892974906,
    6892974907,
    6892974908,
    687395021
  ],
  "tags": {
    "amenity": "doctors",
    "building": "yes",
    "healthcare": "doctor",
    "name": "Wycliffe Surgery"
  }
},
{
  "type": "way",
  "id": 138180351,
  "nodes": [
    1514681809,
    1514681820,
    1874691637,
    6076797489,
    1874691720,
    1514681818,
    6076797492,
    1514681814,
    1514681809
  ],
  "tags": {
    "amenity": "pub",
    "building": "yes",
    "name": "Queens Arms",
    "website": "https://www.plymouthdistillery.com/",
    "wikidata": "Q79838283"
  }
},
{
  "type": "way",
  "id": 151301183,
  "nodes": [
    1641225358,
    1641225363,
    1641225354,
    1641225361,
    1641225356,
    1641225353,
    1641225359,
    1641225336,
    1641225358
  ],
  "tags": {
    "amenity": "restaurant",
    "building": "yes",
    "source": "survey;bing"
  }
},
{
  "type": "way",
  "id": 151419129,
  "nodes": [
    1642432518,
    1642432554,
    1642432507,
    1642432551,
    1642432545,
    1642432543,
    1642432544,
    1642432557,
    1642432485,
    1642432515,
    1642432548,
    1642432511,
    1642432542,
    1642432520,
    1642432541,
    1642432499,
    1642432518
  ],
  "tags": {
    "amenity": "pub",
    "building": "yes",
    "name": "Miller & Carter Steakhouse",
    "source": "bing;survey",
    "wikidata": "Q26666134"
  }
},
{
  "type": "way",
  "id": 151420909,
  "nodes": [
    1642466684,
    1642466682,
    1642466676,
    1642466677,
    1642466680,
    1642466686,
    1642466684
  ],
  "tags": {
    "amenity": "restaurant",
    "brand": "Brewers Fayre",
    "brand:wikidata": "Q4962678",
    "brand:wikipedia": "en:Brewers Fayre",
    "building": "yes",
    "cuisine": "british",
    "name": "Brewers Fayre",
    "source": "bing"
  }
},
{
  "type": "way",
  "id": 158213132,
  "nodes": [
    1704449994,
    9263411512,
    9263411513,
    9263411511,
    9263411514,
    1704449989,
    1704449992,
    9263411515,
    1704449993,
    1704449987,
    1704449984,
    1704449995,
    1704449985,
    9145781047,
    9145781050,
    1740485874,
    1740485878,
    1704449998,
    1704449997,
    1740485886,
    1704449994
  ],
  "tags": {
    "addr:city": "Plymouth",
    "addr:country": "GB",
    "addr:place": "Peverell",
    "addr:postcode": "PL2 3DL",
    "addr:street": "Lyndhurst Road",
    "amenity": "school",
    "capacity": "840",
    "isced:level": "2;3",
    "max_age": "18",
    "min_age": "11",
    "name": "Devonport High School for Girls",
    "operator": "Devonport High School for Girls",
    "phone": "+44 1752 705024",
    "ref:GB:uprn": "100041156550",
    "ref:edubase": "136588",
    "ref:edubase:group": "2884",
    "religion": "none",
    "school:boarding": "no",
    "school:gender": "female",
    "school:selective": "yes",
    "school:trust": "yes",
    "school:trust:name": "Devonport High School For Girls",
    "school:trust:type": "single_academy",
    "school:type": "academy",
    "website": "http://www.dhsg.co.uk",
    "wikidata": "Q5267828"
  }
},